school_name,dbn,Longitude,Latitude,perc_testtakers,num_testtakers,grade_8_2017_enrollment,pct_poverty_2017_val,Percent Black / Hispanic,predicted_perc_testtakers,Average ELA Proficiency_stdized,pct_math_level_3_or_4_2017_city_diff_stdized,sa_attendance_90plus_2017_stdized,pct_8th_graders_w_hs_credit_2017_city_diff_stdized,min_dist_to_big_three_stdized
BROWNSVILLE ASCEND CHARTER SCHOOL,84K737,-73.917872,40.668975,0.2823529411764706,24.0,85.0,0.384,0.98,0.3318384234515491,-0.15723374329629827,0.38651077547858215,0.4478841716474166,-0.9629943136415381,-0.42150325267144345
P.S. 111 JACOB BLACKWELL,30Q111,-73.939237,40.75855,0.0,0.0,33.0,0.434,0.89,0.06802632049147692,-1.2469215464568415,-1.2285686924203068,-0.9655298726978215,-0.20481960274913935,0.03285984436397045
I.S. 98 BAY ACADEMY,21K098,-73.95401600000002,40.583765,0.7560975609756098,372.0,492.0,0.203,0.13,0.7378980899291445,2.4113160784392687,2.612701393393267,0.8751953943564424,0.38104267384953255,0.8372648241178502
WILLIAMSBURG COLLEGIATE CHARTER SCHOOL,84K355,-73.962068,40.70591500000001,0.2716049382716049,22.0,81.0,0.399,0.98,0.47948037671508864,0.20599552442388316,0.9976219254943781,0.7272799711110104,1.8973920956343304,-1.0484980875895835
METROPOLITAN LIGHTHOUSE CHARTER SCHOOL,84X461,-73.930213,40.834312,0.2777777777777778,15.0,54.0,0.4370000000000001,0.97,0.23787517824477494,-0.6242428017936744,-0.3555527638263128,1.3846818522018183,-0.9629943136415381,-0.3290836747514833
THE SEEALL ACADEMY,20K180,-73.989464,40.62659,0.6647058823529411,113.0,170.0,0.369,0.29,0.4477868634356793,0.5173348967554673,0.9539711290646783,0.9491531059791584,-0.342669550184121,-0.11379936449809203
COLUMBIA SECONDARY SCHOOL,05M362,-73.95584699999998,40.81064,0.42857142857142855,42.0,98.0,0.274,0.65,0.7503990251332142,2.4113160784392687,2.307145818385369,1.1135035762518606,2.27647945108053,0.3397080432099517
J.H.S. 014 SHELL BANK,22K014,-73.938193,40.593515999999994,0.18807339449541285,41.0,218.0,0.264,0.64,0.1890430461863288,-0.5723529064050771,-0.3119019673966132,-0.8833546375614705,-0.5839069581953388,0.6894589422956089
MIDDLE SCHOOL FOR ART AND PHILOSOPHY,18K588,-73.92003199999998,40.65785,0.18032786885245905,11.0,61.0,0.276,0.94,0.13085653243406387,-0.6501877494879725,-1.0539655067015081,-0.5957413145842415,-1.10084426107652,-0.33096158713793167
P.S./M.S. 138 SUNRISE,29Q138,-73.734434,40.659983,0.101010101010101,10.0,99.0,0.097,0.92,0.07504423025792939,-0.7020776448765699,-1.1412670995609075,-0.14377752133431138,0.07088029212082389,2.590674143897802
DR. RICHARD IZQUIERDO HEALTH AND SCIENCE CHARTER SCHOOL,84X482,-73.900529,40.827387,0.0603448275862069,7.0,116.0,0.433,0.97,0.17811529408861804,-0.8058574356537646,-0.617457542404511,-0.12734247430704024,-0.6528319319128296,-0.36718256281758543
I.S. 075 FRANK D. PAULO,31R075,-74.197201,40.544369,0.30237154150197626,153.0,506.0,0.069,0.11,0.420411565314455,1.3216282752787245,0.9976219254943781,0.4314491246201464,-0.41159452390161183,3.355645298976082
P.S. 175 CITY ISLAND,11X175,-73.78469100000002,40.84379000000001,0.3414634146341464,14.0,41.0,0.028,0.38,0.39921203892264967,0.8286742690870502,0.43016157190828186,0.2917512248883504,-0.03250716845541232,0.4247891701958426
P.S. 188 THE ISLAND SCHOOL,01M188,-73.977376,40.71987,0.0,0.0,58.0,0.483,0.93,0.15879192405532627,-0.9615271218195566,-0.6611083388342107,-1.3353184308114006,-0.30820706332537556,-0.8862443690380053
P.S. 262 EL HAJJ MALIK EL SHABAZZ ELEMENTARY SCHOOL,16K262,-73.929959,40.683055,0.0,0.0,33.0,0.343,0.97,0.17300622644113656,0.024380890563791863,-1.1412670995609075,-1.1298803429705238,-0.9629943136415381,-0.7050320776197913
JOHN ERICSSON MIDDLE SCHOOL 126,14K126,-73.947968,40.719769,0.2447552447552448,35.0,143.0,0.353,0.84,0.19906739709473106,-0.7539675402651672,-0.5738067459748114,-0.2752578975524722,-0.06696965531415773,-0.6658226100332052
ACCION ACADEMY,12X341,-73.890915,40.842605,0.2058823529411765,7.0,34.0,0.456,0.95,0.11351300079677171,-0.88369227873666,-1.0103147102718084,-1.3846235718932114,-1.10084426107652,-0.71169821804358
I.S. 010 HORACE GREELEY,30Q010,-73.912499,40.759518,0.19112627986348124,56.0,293.0,0.208,0.58,0.3098622568838067,0.12816068134098657,0.12460599690038392,0.24244608380653884,-0.5839069581953388,0.38505622139968587
SCHOOL OF THE FUTURE HIGH SCHOOL,02M413,-73.985349,40.739095,0.5168539325842697,46.0,89.0,0.157,0.4,0.5380546496999608,1.3216282752787245,1.172225111213177,1.1874612878745756,-1.10084426107652,-0.8308248543737818
ICAHN CHARTER SCHOOL,84X717,-73.90498199999998,40.839176,0.7741935483870968,24.0,31.0,0.476,0.99,0.4604409157875772,0.5951697398383627,0.7793679433458796,0.7190624475973744,0.8290550030132228,-0.6050127689085786
MOTT HALL COMMUNITY SCHOOL,08X467,-73.818271,40.826997,0.175,21.0,120.0,0.257,0.79,0.1437009442049714,-0.6761326971822718,-0.7484099316936101,-1.5161039481113732,-0.30820706332537556,0.1541645395211469
M.S. 129 ACADEMY FOR INDEPENDENT LEARNING AND LEADERSHIP,12X129,-73.88653199999997,40.845682,0.15104166666666666,29.0,192.0,0.476,0.95,0.17714249829755005,-0.7280225925708691,-0.617457542404511,-1.0148350137796314,-0.7217569056303205,-0.7754579430050759
EAST SIDE MIDDLE SCHOOL,02M114,-73.947544,40.780646,0.8551724137931035,124.0,145.0,0.049,0.12,0.8221329931776058,2.904270084630943,2.612701393393267,1.5325972754472503,2.035242043069312,0.26708512959900055
P.S. 214,12X214,-73.88028,40.839183,0.2074074074074074,28.0,135.0,0.451,0.95,0.16420161031738564,-0.7799124879594653,-0.7484099316936101,-0.9819649197250908,-0.23928208960788475,-0.6190904831959366
P.S. 207 ELIZABETH G. LEARY,22K207,-73.930304,40.613779,0.2905405405405405,43.0,148.0,0.08800000000000001,0.49,0.46503463336989204,0.9583990075585441,0.7793679433458796,0.9573706294927935,0.5188926212845142,0.3224147438048004
PELHAM GARDENS MIDDLE SCHOOL,11X566,-73.836566,40.86429,0.19745222929936307,31.0,157.0,0.251,0.95,0.15713154761446307,-0.6501877494879725,-0.7920607281233099,-1.4750163305431976,-0.3771320370428664,-0.5411935917247594
TAG YOUNG SCHOLARS,04M012,-73.94211899999998,40.79259,0.9310344827586208,54.0,58.0,0.24,0.44,0.8095719593839792,2.8523801892423455,2.569050596963567,1.2532014759836565,2.483254372233002,0.5294688485807639
COMMUNITY MATH & SCIENCE PREP,06M328,-73.937412,40.836912,0.08653846153846154,9.0,104.0,0.361,0.97,0.04985102631246269,-1.4544811280112309,-1.1412670995609075,-1.3517534778386708,-1.10084426107652,-0.3017392305645875
I.S. 303 HERBERT S. EISENBERG,21K303,-73.972436,40.58241,0.2533333333333333,38.0,150.0,0.306,0.46,0.3057725413263176,0.25788541981248053,-0.006346392388715195,-0.16021256836158068,0.5878175950020049,0.8371989754078183
P.S./I.S. 210 - TWENTY-FIRST CENTURY ACADEMY FOR COMMUNITY LEADERSHIP,06M210,-73.944648,40.830009000000004,0.14814814814814814,8.0,54.0,0.348,0.99,0.30982891254443085,-0.20912363868489564,-0.1372987816778143,0.4478841716474166,1.8973920956343304,-0.10879607459736453
EAGLE ACADEMY FOR YOUNG MEN III,29Q327,-73.778987,40.691665,0.0,0.0,81.0,0.128,0.9,0.13135055337769785,-0.33884837715638844,-1.0976163031312078,0.5875820713792135,-0.30820706332537556,1.7991125509169146
"M.S. 267 MATH, SCIENCE & TECHNOLOGY",16K267,-73.932378,40.687938,0.31666666666666665,19.0,60.0,0.354,0.87,0.2469223563717765,-0.2869584817677911,-0.18094957810751403,-1.9351976473067638,0.001955318403333078,-0.7554512276780092
EXPLORE EXCEL CHARTER SCHOOL,84K379,-73.90803000000002,40.642544,0.3898305084745763,23.0,59.0,0.197,0.96,0.2217937655772786,-0.6761326971822718,-0.2246003745372137,0.3985790305656069,-0.9629943136415381,0.03488368015848057
BATTERY PARK CITY SCHOOL,02M276,-74.017528,40.706563,0.6153846153846154,56.0,91.0,0.056,0.15,0.6193353162622149,1.6070226999160104,1.5214314826507747,0.9245005354382531,0.34658018699078713,-1.2378317383916566
CATHERINE & COUNT BASIE MIDDLE SCHOOL 72,28Q072,-73.77561,40.675061,0.19680851063829788,37.0,188.0,0.187,0.83,0.08509744158268467,-0.7020776448765699,-1.0539655067015081,-0.8422670199932949,-0.17035711589039398,1.8688398219583666
CONSELYEA PREPARATORY SCHOOL,14K577,-73.95705699999998,40.715274,0.5921052631578947,90.0,152.0,0.232,0.62,0.45255152486556194,0.8027293213927521,0.43016157190828186,0.9491531059791584,1.0013674373069499,-0.8301124388511388
M.S. 061 DR. GLADSTONE H. ATWELL,17K061,-73.949034,40.663676,0.294478527607362,96.0,326.0,0.257,0.94,0.20614646744806764,-0.4685731156278824,-0.6611083388342107,-0.3163455151206478,-0.5494444713365934,-0.7748986030567181
HYDE LEADERSHIP CHARTER SCHOOL,84X345,-73.885238,40.815594,0.2676056338028169,19.0,71.0,0.415,0.98,0.2706976035541897,-0.33884837715638844,-0.0936479852481146,0.850542823815537,-0.9629943136415381,-0.11762743361549936
RENAISSANCE CHARTER SCHOOL,84Q705,-73.885164,40.749951,0.24074074074074076,13.0,54.0,0.202,0.67,0.3919057169688458,0.2838303675067786,0.4738123683379816,1.0148932940882394,1.242604845318168,0.5326204287919477
THE LEXINGTON ACADEMY,04M072,-73.947448,40.791451,0.13253012048192772,11.0,83.0,0.33,0.95,0.1447608103329381,-0.5723529064050771,-0.8357115245530096,-1.1216628194568878,-0.13589462903164853,0.4579412666531523
P.S./I.S. 113 ANTHONY J. PRANZO,24Q113,-73.861935,40.705242999999996,0.2241379310344828,26.0,116.0,0.057,0.41,0.48389470022226333,0.9065091121699468,0.8230187397755792,0.8998479648973478,2.069704529928057,0.4502953257195726
I.S. 007 ELIAS BERNSTEIN,31R007,-74.186183,40.52409,0.3233082706766917,129.0,399.0,0.083,0.07,0.4495446313770992,1.4513530137502184,1.172225111213177,0.4232316011065113,0.03641780526207848,3.5267714004488746
SOUTH BRONX PREPARATORY: A COLLEGE BOARD SCHOOL,07X221,-73.920477,40.813507,0.08421052631578947,8.0,95.0,0.513,0.96,0.1743168119853616,-0.7539675402651672,-0.5738067459748114,0.06166056650656641,-1.10084426107652,0.007987498121626833
BRONX ALLIANCE MIDDLE SCHOOL,11X355,-73.840576,40.886043,0.22018348623853207,24.0,109.0,0.289,0.92,0.10155299911610619,-1.1950316510682442,-1.0103147102718084,-1.064140154861442,-0.6183694450540843,-0.6419437151444847
ACHIEVEMENT FIRST EAST NEW YORK CHARTER SCHOOL,84K358,-73.893259,40.663784,0.4310344827586207,25.0,58.0,0.355,0.98,0.5003244682377099,0.3876101582839733,1.6523838719398736,1.1956788113882109,-0.9629943136415381,0.000571040596763935
FUTURE LEADERS INSTITUTE CHARTER SCHOOL,84M861,-73.948335,40.806174,0.30952380952380953,13.0,42.0,0.369,0.98,0.2157006903457851,-0.2869584817677911,-0.44285435668571227,0.07809561353383664,-0.9629943136415381,0.35192598932634894
"I.S. 349 MATH, SCIENCE & TECH.",32K349,-73.927587,40.700818,0.07,7.0,100.0,0.353,0.99,0.19807961052557319,-0.7539675402651672,-0.8357115245530096,0.2753161778610802,1.0702924110244407,-0.6353822592246207
P.S. 047 CHRIS GALAS,27Q047,-73.82017900000002,40.606725,0.0,0.0,10.0,0.16,0.17,0.4243573038442632,1.1140686937243363,0.7793679433458796,0.4150140775928771,-0.2737445764666302,1.673771610775797
P.S. 083 DONALD HERTZ,11X083,-73.858861,40.849167,0.3407079646017699,77.0,226.0,0.244,0.58,0.3331559706929669,0.15410562903528582,-0.006346392388715195,0.7437150181382807,-0.4805194976191026,-0.6632157437632844
THE SCHOOL OF INTEGRATED LEARNING,17K354,-73.937164,40.672272,0.1782178217821782,18.0,101.0,0.327,0.91,0.3397282123834847,0.3876101582839733,-0.0499971888184149,-1.055922631347807,1.104754897883186,-0.7416149475157179
LEADERSHIP PREP BEDFORD STUYVESANT UNCOMMON PREP CHARTER SCHOOL,84K517,-73.945611,40.681896,0.7272727272727273,56.0,77.0,0.311,0.96,0.5579343052579957,0.6470596352269601,1.3904790933616753,1.1628087173336712,2.035242043069312,-0.9539360480365594
P.S. 149 SOJOURNER TRUTH,03M149,-73.948256,40.802665999999995,0.0,0.0,26.0,0.343,0.92,0.031285431632748106,-1.1431417556796468,-1.4031718781391058,-1.3846235718932114,-0.9629943136415381,0.4173528068766497
BRONX CHARTER SCHOOL FOR EXCELLENCE,84X255,-73.85854300000003,40.834056,0.7142857142857143,65.0,91.0,0.234,0.78,0.4913773776022381,1.1140686937243363,0.866669536205279,1.3764643286881832,-0.687294418771575,-0.38610083765334596
M.S. 180 DR. DANIEL HALE WILLIAMS,11X180,-73.832178,40.873204,0.5206896551724138,151.0,290.0,0.173,0.92,0.3609876022941153,0.43950005367257067,-0.006346392388715195,0.6040171184064838,0.415505160708278,-0.5128611125090952
I.S. 227 LOUIS ARMSTRONG,30Q227,-73.87417099999998,40.757692,0.44880174291939,206.0,459.0,0.211,0.59,0.5419336724819579,0.9583990075585441,1.477780686221075,1.2121138584154811,1.4838422533293856,0.7817884380679209
P.S. 096 JOSEPH LANZETTA,04M096,-73.937388,40.799987,0.0,0.0,78.0,0.496,0.94,0.07379104811405743,-0.9615271218195566,-1.1412670995609075,-1.2367081486477793,-0.9629943136415381,0.387157447445744
BROOKLYN SCHOLARS CHARTER SCHOOL,84K740,-73.867298,40.669455,0.3376623376623377,26.0,77.0,0.353,0.92,0.292436448032661,-0.23506858637919373,0.12460599690038392,0.1274007546156482,0.1742677526970601,0.3772288538574046
MOTT HALL III,09X128,-73.900304,40.834973,0.6126126126126126,68.0,111.0,0.494,0.98,0.3987695774972474,0.43950005367257067,0.5174631647676813,0.43966664813378153,-0.41159452390161183,-0.5317646430488744
CONEY ISLAND PREPARATORY PUBLIC CHARTER SCHOOL,84K744,-73.974233,40.598888,0.25287356321839083,22.0,87.0,0.325,0.72,0.3851441013542293,-0.053453952519103586,0.6047647576270807,0.8751953943564424,1.6561546876231128,0.47606821727605725
LEADERSHIP PREPARATORY BROWNSVILLE CHARTER SCHOOL,84K711,-73.906685,40.655763,0.3875,31.0,80.0,0.3720000000000001,0.98,0.4354148510457705,0.20599552442388316,0.8230187397755792,0.7437150181382807,1.5183047401881309,-0.12069919635881887
J.H.S. 162 THE WILLOUGHBY,32K162,-73.92002,40.706871,0.05925925925925926,8.0,135.0,0.325,0.95,0.1242773974978851,-0.8058574356537646,-1.0103147102718084,-0.7600917848569437,-1.10084426107652,-0.4713308718649469
M.S. M245 THE COMPUTER SCHOOL,03M245,-73.978085,40.781081,0.5426356589147286,70.0,129.0,0.128,0.4,0.611286718707911,1.6329676476103085,1.477780686221075,1.3107241405791024,1.5183047401881309,0.011334645385258572
KINGS COLLEGIATE CHARTER SCHOOL,84K608,-73.942071,40.677469,0.3253012048192771,27.0,83.0,0.221,0.99,0.48326484374730727,0.33572026289537593,0.9103203326349787,1.06419843517005,2.0007795562105666,-0.8652811967147777
MADIBA PREP MIDDLE SCHOOL,16K681,-73.931488,40.691976000000004,0.4166666666666667,20.0,48.0,0.349,0.97,0.1365746110093197,-0.9355821741252573,-1.0103147102718084,-0.9490948256705514,0.20873023955580552,-0.737921003156145
EXCELLENCE BOYS CHARTER SCHOOL,84K593,-73.925849,40.683447,0.5416666666666666,39.0,72.0,0.316,0.96,0.5012986347610244,0.23194047211818125,1.2595267040725764,0.9573706294927935,1.8629296087755849,-0.6386571976347281
J.H.S. 123 JAMES M. KIERAN,08X123,-73.873517,40.824884,0.09649122807017543,11.0,114.0,0.42,0.99,0.1224032466907497,-1.013417017208154,-0.8357115245530096,-1.0394875843205367,-0.7562193924890658,-0.28915721332362954
EXCELLENCE GIRLS CHARTER SCHOOL,84K712,-73.924441,40.688119,0.7023809523809523,59.0,84.0,0.304,0.95,0.5587721607018397,1.1659585891129336,1.3031775005022759,0.5875820713792135,1.2770673321769128,-0.6234093978486905
I.S. 211 JOHN WILSON,18K211,-73.895658,40.643163,0.1935483870967742,36.0,186.0,0.241,0.98,0.20991526710898484,-0.1831786909905964,-0.6611083388342107,-0.03694971565705401,-0.514981984477848,0.186531586117678
M.S. 255 SALK SCHOOL OF SCIENCE,02M255,-73.981697,40.735118,0.8503937007874016,108.0,127.0,0.073,0.13,0.8506224423570337,3.1377746138796305,2.569050596963567,1.4422045167972641,1.44937976647064,-0.8399610744810176
BROOKLYN ASCEND CHARTER SCHOOL,84K652,-73.920703,40.662056,0.5925925925925926,48.0,81.0,0.253,0.98,0.3850035513489267,0.024380890563791863,0.6920663504864801,1.0477633881427797,-0.9629943136415381,-0.3917024923431172
P.S. 288 THE SHIRLEY TANYHILL,21K288,-73.99247700000002,40.57427,0.0,0.0,49.0,0.386,0.9,0.054098597458121234,-0.9096372264309592,-1.0539655067015081,-2.247463540824897,-0.9629943136415381,1.0280146704573083
J.H.S. 062 DITMAS,20K062,-73.97124000000002,40.638574,0.25060240963855424,104.0,415.0,0.248,0.55,0.2813653666477028,-0.33884837715638844,-0.1372987816778143,0.8094552062473616,-0.30820706332537556,-0.3888395694484068
ANTONIA PANTOJA PREPARATORY ACADEMY: A COLLEGE BOARD SCHOOL,08X376,-73.855654,40.821448,0.14285714285714285,9.0,63.0,0.37,0.91,0.15232487118788626,-0.5464079587107779,-0.7047591352639105,-1.5243214716250082,-1.10084426107652,-0.1184651204743498
P.S. 164 QUEENS VALLEY,25Q164,-73.823164,40.721159,0.4470588235294118,38.0,85.0,0.139,0.32,0.4370427063435576,1.062178798335739,0.6047647576270807,0.5054068362428624,1.1392173847419316,1.1580564653905796
I.S. 096 SETH LOW,21K096,-73.984972,40.608043,0.4956521739130435,114.0,230.0,0.245,0.38,0.2890276206422092,-0.23506858637919373,0.12460599690038392,0.08631313704747265,-0.17035711589039398,0.28077640287098293
CITY KNOLL MIDDLE SCHOOL,02M933,-73.997896,40.753389,0.19318181818181815,17.0,88.0,0.17800000000000002,0.67,0.2972241727199736,0.41355510597827255,-0.3555527638263128,-0.4231733207979042,-0.514981984477848,-0.6728611944670785
SUMMIT ACADEMY CHARTER SCHOOL,84K730,-74.004818,40.677847,0.17073170731707318,7.0,41.0,0.391,0.92,0.2642787142256778,-0.7020776448765699,-0.0499971888184149,-0.9737473962114558,0.9324424635894589,-0.965869379309224
HARRIET TUBMAN CHARTER SCHOOL,84X706,-73.905817,40.832271999999996,0.3380281690140845,24.0,71.0,0.488,0.98,0.3560832338680051,-0.10534384790770093,0.7357171469161798,-0.43139084431153935,-0.9629943136415381,-0.45534142016522444
I.S. 347 SCHOOL OF HUMANITIES,32K347,-73.927587,40.700818,0.1264367816091954,11.0,87.0,0.35600000000000004,0.96,0.19448978545273404,-0.7539675402651672,-0.617457542404511,-0.045167239170690036,-0.30820706332537556,-0.6353822592246207
CITY COLLEGE ACADEMY OF THE ARTS,06M293,-73.930066,40.86082,0.16666666666666666,13.0,78.0,0.332,0.97,0.4474279608635395,0.6211146875326609,0.4738123683379816,0.7765851121928211,1.6216922007643673,-0.7373971538881873
WASHINGTON HEIGHTS ACADEMY,06M366,-73.92160200000002,40.865573,0.3,15.0,50.0,0.353,0.95,0.4105367848060316,0.07627078595238922,0.866669536205279,0.1931409427247291,-0.4805194976191026,-0.9109989926907034
YOUNG WOMEN'S LEADERSHIP SCHOOL OF BROOKLYN,14K614,-73.938707,40.705023,0.0,0.0,43.0,0.332,0.91,0.22759978483224103,-0.053453952519103586,-0.7047591352639105,-0.1684300918752158,-1.031919287359029,-0.7693437281455108
J.H.S. 194 WILLIAM CARR,25Q194,-73.806977,40.78322,0.392,147.0,375.0,0.109,0.31,0.44710398224373127,0.8546192167813494,0.9539711290646783,0.6204521654337549,0.1053427789795693,1.010955425151449
FORT GREENE PREPARATORY ACADEMY,13K691,-73.971627,40.694425,0.2073170731707317,17.0,82.0,0.387,0.93,0.13528313748136103,-0.7020776448765699,-1.0976163031312078,-2.1981583997430865,0.03641780526207848,-1.3459285953591302
DEMOCRACY PREP ENDURANCE CHARTER SCHOOL,84M065,-73.948862,40.810555,0.24761904761904766,26.0,105.0,0.388,0.98,0.3355478405175104,0.15410562903528582,0.43016157190828186,0.1438358016429175,-1.10084426107652,0.27536850128860113
ISAAC NEWTON MIDDLE SCHOOL FOR MATH & SCIENCE,04M825,-73.932694,40.794167,0.24390243902439024,20.0,82.0,0.388,0.94,0.15628074136904546,-0.7799124879594653,-0.6611083388342107,-0.9573123491841855,0.34658018699078713,0.47501327546207156
I.S. 117 JOSEPH H. WADE,09X117,-73.908447,40.84852100000001,0.0,0.0,223.0,0.48,0.97,0.10247881572580658,-1.2988114418454388,-1.0539655067015081,-0.3820857032297287,-0.7562193924890658,-0.7784924995895004
KAPPA III,12X316,-73.88653199999997,40.845682,0.2786885245901639,34.0,122.0,0.471,0.95,0.27420551778427427,-0.2869584817677911,-0.3119019673966132,0.07809561353383664,0.38104267384953255,-0.7754579430050759
BRONX DANCE ACADEMY SCHOOL,10X308,-73.878058,40.885328,0.2065217391304348,19.0,92.0,0.375,0.97,0.2823790340978554,-0.053453952519103586,-0.2246003745372137,-0.3245630386342829,-1.10084426107652,-1.231713359382995
ACADEMY OF APPLIED MATHEMATICS AND TECHNOLOGY,07X343,-73.91839,40.810207,0.30392156862745096,31.0,102.0,0.522,0.99,0.2646923127062031,-0.4685731156278824,-0.006346392388715195,-0.1026899037661358,0.1053427789795693,0.06583643150332269
NEW DIRECTIONS SECONDARY SCHOOL,09X350,-73.911386,40.839654,0.0,0.0,68.0,0.462,0.98,-0.02330155088507041,-1.6620407095656202,-1.359521081709406,-3.8580981494973776,-1.10084426107652,-0.5808454620466762
P.S. 007 SAMUEL STERN,04M007,-73.939323,40.800631,0.0,0.0,42.0,0.461,0.92,0.2155230295926296,-0.2869584817677911,-0.44285435668571227,-1.1874030075659687,0.5878175950020049,0.38786766720340393
GREAT OAKS CHARTER SCHOOL,84M202,-73.991656,40.719935,0.38028169014084506,27.0,71.0,0.34700000000000003,0.75,0.2703374425546611,-0.4426281679335831,-0.1372987816778143,0.2753161778610802,-1.10084426107652,-1.1227638040942776
NEW YORK CITY LAB MIDDLE SCHOOL FOR COLLABORATIVE STUDIES,02M312,-74.002371,40.74257100000001,0.9367816091954024,163.0,174.0,0.165,0.1,0.8332963914630396,2.8004902938537484,2.569050596963567,1.5572498459881556,1.6906171744818577,-0.9208719058952509
STATEN ISLAND SCHOOL OF CIVIC LEADERSHIP,31R861,-74.16443199999998,40.620326,0.3469387755102041,34.0,98.0,0.17,0.63,0.35227311463428423,0.6470596352269601,0.43016157190828186,0.1931409427247291,-0.03250716845541232,1.8013756282530928
P.S. 181 BROOKLYN,17K181,-73.945911,40.64809,0.3181818181818182,28.0,88.0,0.223,0.95,0.13792404307315656,-0.7020776448765699,-1.0539655067015081,-0.4889135089069842,-0.687294418771575,-0.46414011256874166
THE MOTT HALL SCHOOL,06M223,-73.952104,40.816171999999995,0.9878048780487804,81.0,82.0,0.331,0.93,0.5573943670364443,1.2178484845015298,1.3468282969319756,0.5793645478655793,1.9663170693518213,0.20538917936423193
BEDFORD STUYVESANT COLLEGIATE CHARTER SCHOOL,84K648,-73.932378,40.687938,0.4868421052631579,37.0,76.0,0.33,0.95,0.4439731825190322,-0.13128879560199905,0.9539711290646783,0.8012376827337255,1.8284671219168396,-0.7554512276780092
THE URBAN ASSEMBLY BRONX ACADEMY OF LETTERS,07X551,-73.925999,40.81366,0.0,0.0,81.0,0.526,0.97,0.028812527239582553,-1.1950316510682442,-1.1849178959906073,-3.093868462729313,-0.9629943136415381,0.037441546862053934
THEATRE ARTS PRODUCTION COMPANY SCHOOL,10X225,-73.897036,40.854655,0.09230769230769233,6.0,65.0,0.434,0.95,0.24409360155751295,-0.41668322023928506,-0.39920356025601256,-0.6779165497205927,0.1398052658383147,-0.9651675535010734
"NEW EXPLORATIONS INTO SCIENCE, TECHNOLOGY AND MATH SCHOOL",01M539,-73.979239,40.7195,1.0413223140495869,126.0,121.0,0.152,0.2,0.8822727712807528,3.34533419543402,2.612701393393267,1.2367664289563864,2.4143293985155116,-0.9177237329775945
I.S. 125 THOM J. MCCANN WOODSIDE,24Q125,-73.918649,40.741091,0.46815834767642,272.0,581.0,0.214,0.54,0.37688542566996713,0.2838303675067786,0.43016157190828186,0.7108449240837402,0.001955318403333078,0.00236503165275887
NEW WORLD PREPARATORY CHARTER SCHOOL,84R073,-74.13707099999998,40.639517,0.203125,26.0,128.0,0.28800000000000003,0.94,0.26797907887662215,-0.23506858637919373,-0.0499971888184149,1.2696365230109268,-0.3771320370428664,1.1820854663259186
P.S. 165 IDA POSNER,23K165,-73.910944,40.657196,0.0,0.0,28.0,0.322,0.97,0.057428194031070606,-1.0912518602910495,-1.1849178959906073,-2.181723352715816,-0.9629943136415381,-0.1974631072175458
COMMUNITY HEALTH ACADEMY OF THE HEIGHTS,06M346,-73.94244599999998,40.833487,0.17777777777777778,16.0,90.0,0.363,0.98,0.18931392036074335,-0.5982978540993752,-0.7484099316936101,0.38214398353833573,-0.342669550184121,-0.19035771340608681
I.S. 392,23K392,-73.917884,40.665296999999995,0.5054945054945055,46.0,91.0,0.32,0.91,0.499796513763632,1.3216282752787245,0.6047647576270807,0.5629295008383082,1.6216922007643673,-0.38650573172932445
M.S. 582,14K582,-73.93952900000002,40.708781,0.0,0.0,85.0,0.35,0.95,0.16870266263498507,-0.41668322023928506,-1.0103147102718084,-0.18486513890248693,-1.10084426107652,-0.7371422264073613
MARSH AVENUE SCHOOL FOR EXPEDITIONARY LEARNING,31R063,-74.15935999999998,40.581969,0.5,70.0,140.0,0.122,0.27,0.4311874594419616,1.2697383798901272,0.7357171469161798,0.6779748300291988,0.48443013442576877,2.3442868684578215
NEW MILLENNIUM BUSINESS ACADEMY MIDDLE SCHOOL,09X328,-73.91377299999998,40.827748,0.3620689655172414,21.0,58.0,0.473,0.98,0.08512108681986039,-1.1431417556796468,-1.0539655067015081,-1.1545329135114282,-1.10084426107652,-0.32287405986913875
P.S./I.S. 116 WILLIAM C. HUGHLEY,29Q116,-73.78191600000002,40.70076,0.16666666666666666,10.0,60.0,0.195,0.92,0.09560785006384817,-0.7280225925708691,-0.8357115245530096,-0.8669195905342002,-0.9629943136415381,1.7599397914310018
P.S./I.S. 087 MIDDLE VILLAGE,24Q087,-73.871298,40.711906,0.26666666666666666,12.0,45.0,0.196,0.51,0.29328415126257384,0.41355510597827255,-0.006346392388715195,-0.9408773021569153,-0.9629943136415381,0.3319281325295789
KNOWLEDGE AND POWER PREPARATORY ACADEMY VI,27Q282,-73.763979,40.601532,0.4883720930232558,42.0,86.0,0.243,0.92,0.3016923957071441,0.25788541981248053,-0.1372987816778143,1.5983374635563312,1.8629296087755849,2.5332737962516756
P.S. 171 PATRICK HENRY,04M171,-73.951449,40.792304,0.4526315789473685,43.0,95.0,0.374,0.89,0.48571242694964123,0.8027293213927521,1.172225111213177,-0.13555999782067535,1.5183047401881309,0.4368135185007176
KIPP WASHINGTON HEIGHTS MIDDLE SCHOOL,84M068,-73.935772,40.839408,0.2043010752688172,19.0,93.0,0.354,0.99,0.4611562591034269,0.050325838258091116,1.1285743147834773,0.8998479648973478,1.4149172796118947,-0.360868600901147
QUEENS GATEWAY TO HEALTH SCIENCES SECONDARY SCHOOL,28Q680,-73.805991,40.71855,0.6853932584269663,61.0,89.0,0.181,0.46,0.7167575946025673,2.307536287662074,2.263495021955669,1.51616222841998,2.035242043069312,1.42145008704674
J.H.S. 189 DANIEL CARTER BEARD,25Q189,-73.817909,40.760344,0.4199134199134199,97.0,231.0,0.265,0.28,0.4112008940210139,0.25788541981248053,1.0412727219240778,1.06419843517005,0.07088029212082389,1.3583166731563558
I.S. 024 MYRA S. BARNES,31R024,-74.145561,40.545793,0.2882096069868996,132.0,458.0,0.083,0.13,0.3550819155688003,0.8027293213927521,0.561113961197381,0.23422856029290465,-0.10143214217290315,2.717075888152633
I.S. 229 ROLAND PATTERSON,09X229,-73.929604,40.841563,0.0,0.0,88.0,0.506,0.98,0.08219188661896498,-1.1431417556796468,-1.0976163031312078,-2.189940876229451,0.001955318403333078,-0.4628393658723766
MIDDLE SCHOOL 322,06M322,-73.930066,40.860820000000004,0.20952380952380956,22.0,105.0,0.34,0.98,0.18685362670700345,-1.0653069125967514,-0.44285435668571227,0.06166056650656641,-0.7562193924890658,-0.7373971538879753
PARK SLOPE COLLEGIATE,15K464,-73.97867,40.669302,0.4375,21.0,48.0,0.263,0.75,0.3375641860512806,-0.41668322023928506,0.21190758975978333,0.2670986543474442,1.1392173847419316,-1.0634782145817825
VOICE CHARTER SCHOOL OF NEW YORK,84Q304,-73.939713,40.760397,0.3508771929824561,20.0,57.0,0.24,0.7,0.4100725371442283,0.491389949061168,0.7793679433458796,0.6122346419201189,-0.9629943136415381,0.05042249658436099
ACADEMY FOR PERSONAL LEADERSHIP AND EXCELLENCE,10X363,-73.900475,40.859506,0.2795031055900621,45.0,161.0,0.451,0.96,0.1587227271661831,-0.7799124879594653,-1.0103147102718084,-0.07803733322522957,-0.5839069581953388,-1.0513962227029212
TOMPKINS SQUARE MIDDLE SCHOOL,01M839,-73.981602,40.723747,0.5409836065573771,66.0,122.0,0.326,0.53,0.45854960676627454,0.9843439552528422,0.561113961197381,0.8834129178700775,-0.514981984477848,-0.9429878762220324
P.S. 076 A. PHILIP RANDOLPH,03M076,-73.951368,40.806540999999996,0.0,0.0,49.0,0.338,0.96,0.08724102309186285,-0.3907382725449858,-1.2285686924203068,-2.403596487583964,-0.9629943136415381,0.37174657480297824
COMMUNITY ACTION SCHOOL - MS 258,03M258,-73.97077,40.791685,0.13414634146341464,11.0,82.0,0.269,0.87,0.2638966210584923,-0.33884837715638844,-0.0499971888184149,-0.11090742727977002,0.03641780526207848,0.27261008336263076
SCHOOL FOR DEMOCRACY AND LEADERSHIP,17K533,-73.943838,40.658665,0.0,0.0,17.0,0.263,0.96,0.07822728191976558,-1.2469215464568415,-1.2722194888500065,-0.9655298726978215,-0.2737445764666302,-0.6352597338021252
P.S./I.S. 178 HOLLISWOOD,26Q178,-73.777475,40.724401,0.4107142857142857,23.0,56.0,0.084,0.17,0.48084440555489993,0.8286742690870502,1.1285743147834773,1.06419843517005,2.3109419379392753,1.9127065378457806
BROOKLYN ENVIRONMENTAL EXPLORATION SCHOOL (BEES),23K664,-73.91115,40.680262,0.2857142857142857,12.0,42.0,0.382,0.97,0.11070541639239306,-1.169086703373946,-0.7920607281233099,-1.1545329135114282,-1.10084426107652,-0.3859741926160404
P.S. 192 - THE MAGNET SCHOOL FOR MATH AND SCIENCE INQUIRY,20K192,-73.979862,40.628989,0.2857142857142857,14.0,49.0,0.337,0.53,0.28237997272639975,-0.20912363868489564,-0.1372987816778143,0.0452255194792971,0.34658018699078713,-0.18177675527340798
BRONX STUDIO SCHOOL FOR WRITERS AND ARTISTS,08X269,-73.892938,40.820398,0.0,0.0,95.0,0.419,0.98,0.1140164428055837,-0.7799124879594653,-1.0539655067015081,-0.8833546375614705,-1.10084426107652,-0.22538326636251976
P.S./M.S. 042 R. VERNAM,27Q042,-73.794945,40.594435,0.0,0.0,73.0,0.256,0.95,-0.004161925197397998,-1.324756389539738,-1.1412670995609075,-2.1077656410931,-0.6183694450540843,2.172825023253568
P.S./I.S. 217 ROOSEVELT ISLAND,02M217,-73.948468,40.763969,0.3333333333333333,6.0,18.0,0.102,0.3,0.4942082730504304,0.9324540598642449,1.2158759076428767,0.6533222594882944,-0.514981984477848,-0.01115657855256001
P.S. 109,22K109,-73.933149,40.636004,0.15789473684210525,12.0,76.0,0.16,0.95,0.21425024336745283,-0.5723529064050771,-0.5738067459748114,-0.2423878034979318,0.8979799767307135,-0.12794573889991528
P.S./I.S. 045 HORACE E. GREENE,32K045,-73.910178,40.686658,0.3428571428571429,24.0,70.0,0.35600000000000004,0.95,0.2118439104458625,-0.36479332485068766,-0.44285435668571227,-0.8176144494523886,-0.9629943136415381,-0.3849667627040788
THE EAGLE ACADEMY FOR YOUNG MEN OF STATEN ISLAND,31R028,-74.080771,40.620483,0.3050847457627119,18.0,59.0,0.281,0.83,0.16168758514207174,-0.41668322023928506,-0.6611083388342107,-0.5382186499887958,-1.10084426107652,0.7975778736236493
EAST FORDHAM ACADEMY FOR THE ARTS,10X459,-73.900475,40.859506,0.09433962264150944,10.0,106.0,0.46,0.97,0.09330084652221302,-1.0393619649024521,-1.2722194888500065,-0.9573123491841855,-0.9629943136415381,-1.0513962227029212
URBAN ASSEMBLY SCHOOL FOR CRIMINAL JUSTICE,20K609,-73.98163100000002,40.634787,0.3478260869565217,24.0,69.0,0.29100000000000004,0.4,0.340416717715116,0.30977531520107787,0.08095520047068422,-0.012297145116148678,0.1053427789795693,-0.30681275404351444
P.S./I.S. 268,29Q268,-73.785219,40.707652,0.4090909090909091,27.0,66.0,0.207,0.61,0.26649445969794155,0.3876101582839733,-0.3119019673966132,0.3410563659701602,0.1398052658383147,1.7207142849280785
BROWNSVILLE COLLABORATIVE MIDDLE SCHOOL,23K363,-73.90774,40.671012,0.0,0.0,37.0,0.531,0.96,0.046574466478994714,-1.2209765987625434,-1.4031718781391058,-0.9901824432387268,-1.10084426107652,-0.2805175468503947
P.S. 180 HUGO NEWMAN,03M180,-73.955839,40.807609,0.3859649122807017,22.0,57.0,0.242,0.87,0.21243388097758883,-0.15723374329629827,-0.7047591352639105,-0.16021256836158068,0.31211770013204176,0.39362352737277256
SPRING CREEK COMMUNITY SCHOOL,19K422,-73.874138,40.6573,0.08695652173913042,6.0,69.0,0.365,0.96,0.13046045938736675,-0.7020776448765699,-0.9666639138421087,-0.5300011264751597,-0.4460570107603572,0.34902913080629633
P.S./I.S. 187 HUDSON CLIFFS,06M187,-73.93729499999998,40.856137,0.3870967741935484,36.0,93.0,0.2,0.61,0.4551388995100474,0.7767843736984529,0.6484155540567804,0.6861923535428348,0.5188926212845142,-0.5815408415265263
EAST SIDE COMMUNITY SCHOOL,01M450,-73.982474,40.729153,0.14953271028037382,16.0,107.0,0.313,0.74,0.40828347641613005,0.7248944783098555,0.21190758975978333,1.3764643286881832,-0.8251443662065567,-0.9172387882317488
E.S.M.T- I.S. 190,12X190,-73.89275,40.836359,0.2533333333333333,19.0,75.0,0.507,0.96,0.19240287035359094,-0.7539675402651672,-0.617457542404511,-0.3163455151206478,-0.03250716845541232,-0.574499065152628
ICAHN CHARTER SCHOOL 3,84X422,-73.84304200000003,40.856635,0.7083333333333334,17.0,24.0,0.299,0.93,0.43974243807139224,0.024380890563791863,1.172225111213177,0.7272799711110104,-0.3771320370428664,-0.5685107894134824
INSTITUTE FOR COLLABORATIVE EDUCATION,02M407,-73.982576,40.732676,0.2916666666666667,21.0,72.0,0.179,0.32,0.43058525743234405,1.9183620722475934,-0.3119019673966132,0.8176727297609966,-0.9974568005002836,-0.8817243964889446
"THE GREGORY JOCKO JACKSON SCHOOL OF SPORTS, ART, AND TECHNOLOGY",23K284,-73.90760999999998,40.66693400000001,0.15517241379310345,9.0,58.0,0.574,0.99,0.07273998063916454,-1.1950316510682442,-1.2285686924203068,-1.0312700608069025,-0.514981984477848,-0.24684918688499877
BROOKLYN PROSPECT CHARTER SCHOOL,84K707,-73.978583,40.648155,0.22857142857142854,24.0,105.0,0.175,0.49,0.4963659339905794,0.7248944783098555,1.0412727219240778,1.0970685292245903,0.415505160708278,-0.6015751782239938
VISTA ACADEMY,19K661,-73.883838,40.676982,0.21052631578947367,24.0,114.0,0.306,0.93,0.21035994286595702,-0.8318023833480627,-0.1372987816778143,-0.4067382737706331,-0.5494444713365934,0.0745000664022296
CENTRAL QUEENS ACADEMY CHARTER SCHOOL,84Q083,-73.866404,40.737333,0.42268041237113396,41.0,97.0,0.253,0.77,0.5466504480247294,0.8286742690870502,1.477780686221075,1.4257694697699939,1.9663170693518213,0.6262236256775346
J.H.S. 022 JORDAN L. MOTT,09X022,-73.914142,40.832278,0.16551724137931034,24.0,145.0,0.471,0.98,0.0816098615262269,-1.2728664941511407,-1.2285686924203068,0.08631313704747265,-1.10084426107652,-0.41391440604528246
COMMUNITY ROOTS CHARTER SCHOOL,84K536,-73.977889,40.695143,0.3137254901960784,16.0,51.0,0.211,0.48,0.45402026087135683,0.8286742690870502,0.5174631647676813,1.06419843517005,-0.6183694450540843,-1.3549492278761088
"SCIENCE, TECHNOLOGY AND RESEARCH EARLY COLLEGE HIGH SCHOOL AT ERASMUS",17K543,-73.957176,40.649588,0.30303030303030304,20.0,66.0,0.241,0.94,0.4801096813540795,1.088123746030037,0.561113961197381,0.8998479648973478,1.0358299241656952,-0.5742381125205896
J.H.S. 216 GEORGE J. RYAN,26Q216,-73.79446300000002,40.73726,0.6481876332622601,304.0,469.0,0.139,0.17,0.574539906367767,1.4513530137502184,1.739685464799273,1.1710262408473064,1.0013674373069499,1.7191074055578313
LIBERTY AVENUE MIDDLE SCHOOL,19K662,-73.883838,40.676982,0.07692307692307693,12.0,156.0,0.307,0.92,0.14491172225370325,-0.5723529064050771,-0.7920607281233099,-1.5407565186522785,-0.5494444713365934,0.0745000664022296
P.S. K225 - THE EILEEN E. ZAGLIN,21K225,-73.95600999999998,40.579809999999995,0.3684210526315789,42.0,114.0,0.284,0.4,0.24361478573720846,-0.07939890021340283,-0.18094957810751403,-0.7107866437751322,-0.03250716845541232,0.9177169934335404
I.S. 218 SALOME URENA,06M218,-73.930066,40.86082,0.0,0.0,93.0,0.35100000000000003,0.96,0.09360505579271139,-1.169086703373946,-1.1849178959906073,-0.3492156091751891,-1.10084426107652,-0.7373971538881873
"YOUNG WOMEN'S LEADERSHIP SCHOOL, QUEENS",28Q896,-73.80419599999998,40.708431,0.3670886075949367,29.0,79.0,0.194,0.6,0.502314312676805,1.3475732229730237,1.172225111213177,1.0477633881427797,0.07088029212082389,1.4100531468878024
TECH INTERNATIONAL CHARTER SCHOOL,84X258,-73.90708599999998,40.880835999999995,0.0,0.0,92.0,0.362,0.95,0.16512889000738007,-0.7020776448765699,-0.7920607281233099,-1.0970102489159823,-1.10084426107652,-1.2178310651415905
P.S. 183 DR. RICHARD R. GREEN,27Q183,-73.80528199999998,40.588936,0.0,0.0,48.0,0.264,0.87,0.013354302911142979,-0.9874720695138547,-1.1849178959906073,-2.07489554703856,-0.9629943136415381,2.103801012130309
P.S./M.S. 280 MOSHOLU PARKWAY,10X280,-73.881546,40.877179,0.4019607843137255,41.0,102.0,0.31,0.83,0.2890055892250431,-0.15723374329629827,-0.0936479852481146,-0.5135660794478905,-0.9629943136415381,-1.3370661702761457
THE NEW SCHOOL FOR LEADERSHIP AND JOURNALISM,10X244,-73.901516,40.875451,0.3273381294964029,91.0,278.0,0.3670000000000001,0.94,0.29803681585828895,-0.07939890021340283,-0.18094957810751403,-0.258822850525202,-0.3771320370428664,-1.3049789633921554
BELL ACADEMY,25Q294,-73.77844,40.782346,0.5564516129032258,69.0,124.0,0.11,0.31,0.5820626124429631,1.3735181706673218,1.739685464799273,0.8176727297609966,1.6906171744818577,1.3169844688081804
I.S. 340,17K340,-73.96972199999998,40.67627,0.4666666666666667,35.0,75.0,0.253,0.96,0.32725740299281675,0.491389949061168,-0.44285435668571227,0.2506636073201749,0.1398052658383147,-1.1939639448339243
HARLEM CHILDREN'S ZONE PROMISE ACADEMY II CHARTER SCHOOL,84M341,-73.94102,40.806204,0.2278481012658228,18.0,79.0,0.3720000000000001,0.97,0.42017274581671704,0.07627078595238922,1.2158759076428767,0.768367588679186,-0.9629943136415381,0.2914473333771088
ACADEMY FOR NEW AMERICANS,30Q235,-73.923052,40.766708,0.08333333333333333,6.0,72.0,0.209,0.63,0.10702856683088277,-1.6360957618713217,-0.6611083388342107,0.8751953943564424,-1.10084426107652,0.355692799428041
I.S. 119 THE GLENDALE,24Q119,-73.875033,40.705198,0.4541484716157205,104.0,229.0,0.131,0.32,0.549365246798725,1.5291878568331139,1.1285743147834773,0.842325300301901,1.0702924110244407,0.23619539744519313
QUEENS UNITED MIDDLE SCHOOL,29Q289,-73.743438,40.672087,0.2876712328767123,21.0,73.0,0.115,0.91,0.08859965725283186,-0.5204630110164797,-1.0539655067015081,0.10274818407474197,-1.10084426107652,2.4084467011635895
P.S. 019 JUDITH K. WEISS,11X019,-73.867223,40.899321,0.42857142857142855,24.0,56.0,0.103,0.36,0.44357496082058046,0.6989495306155574,0.561113961197381,0.546494453811038,0.38104267384953255,-0.8895246370804442
"YOUNG WOMEN'S LEADERSHIP SCHOOL, ASTORIA",30Q286,-73.924184,40.771319,0.35365853658536583,29.0,82.0,0.22,0.49,0.5108086500403008,0.8805641644756476,1.1285743147834773,0.9162830119246179,1.8629296087755849,0.4008527832598161
M.S. 51 WILLIAM ALEXANDER,15K051,-73.984625,40.67218,0.7526881720430108,280.0,372.0,0.14300000000000002,0.29,0.7632545348724761,2.4891509215221643,2.045241039807171,1.294289093551832,2.035242043069312,-1.104448597596604
BROOKLYN EXCELSIOR CHARTER SCHOOL,84K731,-73.92501899999998,40.68972,0.30666666666666664,23.0,75.0,0.324,0.97,0.2662600952663284,-0.49451806332218046,-0.006346392388715195,-0.7929618789114833,0.03641780526207848,-0.633015910470546
P.S. 184 NEWPORT,23K184,-73.90494699999998,40.660228000000004,0.0,0.0,42.0,0.517,0.98,0.07561279319765454,-0.9615271218195566,-1.1412670995609075,-1.8530224121704126,-0.9629943136415381,-0.1441402454778943
"ARCHIMEDES ACADEMY FOR MATH, SCIENCE AND TECHNOLOGY APPLICATIONS",08X367,-73.856018,40.815017,0.3448275862068966,30.0,87.0,0.366,0.9,0.17154542155612912,-0.20912363868489564,-0.923013117412409,-1.2695782427023197,-0.06696965531415773,0.007746977969211433
MOTT HALL BRIDGES ACADEMY,23K671,-73.91127,40.666247,0.15873015873015872,10.0,63.0,0.442,0.98,0.1634988063863302,-0.7280225925708691,-0.7920607281233099,-0.29169294457974243,-0.5494444713365934,-0.29672034846837364
I.S. 072 ROCCO LAURIE,31R072,-74.158532,40.59247,0.31447963800904977,139.0,442.0,0.092,0.29,0.3617650189914469,0.7508394260041548,0.5174631647676813,0.05344304299293221,0.24319272641455092,2.159929981751911
THE ANDERSON SCHOOL,03M334,-73.978085,40.781081,1.0135135135135136,75.0,74.0,0.093,0.13,0.8897292033416511,3.604783672377007,2.6563521898229667,1.51616222841998,2.483254372233002,0.011334645385258572
KIPP STAR COLLEGE PREP CHARTER SCHOOL,84M726,-73.956339,40.810854,0.2903225806451613,18.0,62.0,0.366,0.97,0.4221457770031057,-0.001564057130506237,1.172225111213177,0.842325300301901,-0.13589462903164853,0.3407654495494383
M.S. K266 - PARK PLACE COMMUNITY MIDDLE SCHOOL,13K266,-73.9465,40.678907,0.1568627450980392,8.0,51.0,0.277,0.98,0.13671402518165737,-0.8058574356537646,-1.0976163031312078,-0.6039588380978766,-0.5839069581953388,-0.9454739586524449
P.S. 089 BRONX,11X089,-73.859202,40.862563,0.13440860215053765,25.0,186.0,0.318,0.76,0.24254159922753596,-0.6242428017936744,-0.18094957810751403,-0.5793062675569713,-0.3771320370428664,-0.8648779201093504
J.H.S. 080 THE MOSHOLU PARKWAY,10X080,-73.88124,40.876823,0.21982758620689652,51.0,232.0,0.359,0.81,0.18887236104670246,-0.9874720695138547,-0.7484099316936101,0.38214398353833573,-0.23928208960788475,-1.3306503281677402
SATELLITE WEST MIDDLE SCHOOL,13K313,-73.981587,40.701781,0.0,0.0,18.0,0.35600000000000004,0.94,0.26032538416059936,-0.9096372264309592,0.037304404040984514,-0.4478258913388086,0.1053427789795693,-1.1995772035859291
P.S. 165 ROBERT E. SIMON,03M165,-73.96595,40.802678,0.1206896551724138,7.0,58.0,0.228,0.82,0.2153292001714102,-0.4426281679335831,-0.0499971888184149,-1.3271009072977655,-0.9629943136415381,0.5250962157542715
J.H.S. 127 THE CASTLE HILL,11X127,-73.853201,40.838494,0.5683760683760684,133.0,234.0,0.221,0.64,0.276255279759399,-0.13128879560199905,-0.2246003745372137,0.028790472452026875,-0.23928208960788475,-0.42080008909276484
GLOBAL TECHNOLOGY PREPARATORY,04M406,-73.939323,40.800631,0.0,0.0,48.0,0.443,0.97,0.1336053365448891,-0.7020776448765699,-0.9666639138421087,-0.11912495079340513,-0.6528319319128296,0.38786766720340393
DEMOCRACY PREP HARLEM CHARTER SCHOOL,84M481,-73.945122,40.814412,0.19090909090909086,21.0,110.0,0.384,0.97,0.2489932755979754,-0.4426281679335831,-0.1372987816778143,0.6697573065155646,-0.9629943136415381,0.17075236081013853
I.S. 254,10X254,-73.889841,40.85885800000001,0.06666666666666668,13.0,195.0,0.418,0.95,0.15744990968003353,-0.88369227873666,-0.7920607281233099,-0.8833546375614705,-0.7217569056303205,-1.0669583289030886
COLLABORATIVE ARTS MIDDLE SCHOOL,29Q355,-73.759088,40.664858,0.125,17.0,136.0,0.117,0.97,0.08448796833592301,-0.8577473310423619,-0.8793623209827093,-0.5300011264751597,-0.514981984477848,2.1685772340141307
URBAN ASSEMBLY ACADEMY FOR FUTURE LEADERS,05M286,-73.9556,40.815745,0.16129032258064516,15.0,93.0,0.409,0.98,0.04089803765928235,-1.0912518602910495,-1.2285686924203068,-2.173505829202181,-1.10084426107652,0.2481554124573539
"BALLET TECH, NYC PUBLIC SCHOOL FOR DANCE",02M442,-73.989485,40.73854,0.75,15.0,20.0,0.194,0.41,0.658292335337112,1.7367474383875032,1.6087330755101739,1.1135035762518606,2.138629503645548,-0.8871544494557329
FREDERICK DOUGLASS ACADEMY II SECONDARY SCHOOL,03M860,-73.95408,40.802284,0.0,0.0,30.0,0.362,0.95,0.23390670794137397,-0.5723529064050771,-0.0499971888184149,-0.8833546375614705,0.38104267384953255,0.47453039543745795
M.S. 131,02M131,-73.993555,40.716213,0.3176470588235294,54.0,170.0,0.36,0.22,0.42438199245929864,-0.13128879560199905,0.9539711290646783,1.0806334821973202,-0.514981984477848,-1.1551284832552402
P.S. 102 BAYVIEW,24Q102,-73.87775,40.73342,0.5929203539823009,67.0,113.0,0.225,0.36,0.45870870960203397,0.8027293213927521,0.9539711290646783,0.8916304413837126,-0.10143214217290315,0.42000241700977026
REDWOOD MIDDLE SCHOOL,28Q332,-73.77561,40.675061,0.2727272727272727,27.0,99.0,0.16,0.85,0.16196727526023091,-0.4426281679335831,-0.5738067459748114,-0.12734247430704024,-0.30820706332537556,1.8688398219583666
WEST PREP ACADEMY,03M421,-73.96535899999998,40.79909,0.3088235294117647,21.0,68.0,0.314,0.91,0.16159790870161891,-0.5982978540993752,-0.7484099316936101,-0.6203938851251469,-0.03250716845541232,0.45724003813447595
IN-TECH ACADEMY (M.S. / HIGH SCHOOL 368),10X368,-73.909674,40.87956,0.15789473684210525,27.0,171.0,0.274,0.91,0.2398756785789748,-0.4426281679335831,-0.7484099316936101,0.2013584662383633,1.0013674373069499,-1.1792105250988896
EAST FLATBUSH COMMUNITY RESEARCH SCHOOL,18K581,-73.928682,40.658685,0.42857142857142855,18.0,42.0,0.221,0.91,0.16112655963577005,-0.9615271218195566,-0.8357115245530096,0.4889717892155922,-0.41159452390161183,-0.456251138101984
KAPPA IV,05M302,-73.947238,40.817282,0.0,0.0,48.0,0.363,0.92,0.0476784191382954,-0.9874720695138547,-1.2722194888500065,-2.1159831646067353,-1.10084426107652,0.13827084340640405
I.S. 093 RIDGEWOOD,24Q093,-73.902827,40.705855,0.19597989949748745,78.0,398.0,0.255,0.72,0.31809955699163156,-0.001564057130506237,0.037304404040984514,0.2835337013747144,0.24319272641455092,-0.2089980973450631
HIGHLAND PARK COMMUNITY SCHOOL,19K760,-73.869429,40.685841,0.1,10.0,100.0,0.316,0.96,0.1371943982299745,-0.5204630110164797,-0.8357115245530096,-1.3435359543250358,-0.9285318267827927,0.29380467437417573
J.H.S. 151 LOU GEHRIG,07X151,-73.921487,40.822539,0.0,0.0,89.0,0.44,0.98,0.06396252439584879,-1.1431417556796468,-1.2285686924203068,-1.1709679605386993,-1.10084426107652,-0.1707169324187285
P.S. 108 ASSEMBLYMAN ANGELO DEL TORO EDUCATIONAL COMPLEX,04M108,-73.947872,40.795035,0.1,9.0,90.0,0.378,0.92,0.09371268679412753,-0.6501877494879725,-1.0539655067015081,-1.7297595594658859,-0.9629943136415381,0.5192399545847489
SCIENCE AND TECHNOLOGY ACADEMY: A MOTT HALL SCHOOL,09X454,-73.917661,40.828111,0.23026315789473684,35.0,152.0,0.422,0.96,0.29915950711111583,0.10221573364668846,-0.006346392388715195,-0.6861340732342278,-0.30820706332537556,-0.30764172131504025
THE BRONX MATHEMATICS PREPARATORY SCHOOL,08X375,-73.856018,40.815017,0.19318181818181815,17.0,88.0,0.4,0.97,0.09890130793460636,-0.9615271218195566,-0.9666639138421087,-1.877674982711318,-0.2737445764666302,0.007746977969211433
WORLD JOURNALISM PREPARATORY: A COLLEGE BOARD SCHOOL,25Q285,-73.789689,40.765017,0.22535211267605634,16.0,71.0,0.13,0.31,0.33592957325643497,0.7767843736984529,0.16825679333008361,0.5793645478655793,-0.9629943136415381,1.5018722685847434
DREAM CHARTER SCHOOL,84M382,-73.94409499999998,40.788341,0.2909090909090909,16.0,55.0,0.358,0.97,0.3539675334501656,-0.07939890021340283,0.7793679433458796,0.2917512248883504,-0.9629943136415381,0.4352186040181891
VILLAGE ACADEMY,27Q319,-73.749868,40.603951,0.3775510204081632,37.0,98.0,0.265,0.97,0.0679979527541007,-0.9874720695138547,-0.8357115245530096,-0.5628712205297011,-0.3771320370428664,2.7180348111974184
P.S. 018 PARK TERRACE,06M018,-73.911618,40.87164600000001,0.13636363636363635,6.0,44.0,0.31,0.98,0.17604068977181275,-1.1431417556796468,-0.7484099316936101,0.32462131894289,0.07088029212082389,-1.1183701517961915
LOWER MANHATTAN COMMUNITY MIDDLE SCHOOL,02M896,-74.012888,40.705442,0.5511811023622047,70.0,127.0,0.228,0.29,0.49365831187215387,0.5951697398383627,1.0412727219240778,0.9984582470609691,0.001955318403333078,-1.2207881724357856
ESSENCE SCHOOL,19K311,-73.894749,40.66226500000001,0.0,0.0,37.0,0.4,0.89,0.033776030123147616,-1.532315971094127,-1.2722194888500065,-0.8011794024251193,-1.10084426107652,-0.009736243113469161
J.H.S. 383 PHILIPPA SCHUYLER,32K383,-73.919072,40.697891999999996,0.6130136986301371,179.0,292.0,0.303,0.93,0.42751313871696484,0.9324540598642449,0.08095520047068422,0.8094552062473616,1.6906171744818577,-0.5142176412726599
I.S. X303 LEADERSHIP & COMMUNITY SERVICE,09X303,-73.915529,40.849461,0.20253164556962025,16.0,79.0,0.46,0.98,0.2290395817825076,-0.7020776448765699,-0.44285435668571227,-0.2423878034979318,0.6912050555782412,-0.7401592796094476
CRESTON ACADEMY,10X447,-73.90326400000002,40.855211,0.17901234567901236,29.0,162.0,0.506,0.96,0.22050396428929153,-0.6242428017936744,-0.44285435668571227,-0.1684300918752158,-0.7217569056303205,-0.9469541203981242
AMERICAN DREAM CHARTER SCHOOL,84X471,-73.91752,40.809065000000004,0.3376623376623377,26.0,77.0,0.488,0.98,0.2637387233307344,-0.41668322023928506,-0.0936479852481146,0.9655881530064286,-0.8596068530653022,0.0856165824053573
ALL CITY LEADERSHIP SECONDARY SCHOOL,32K554,-73.913097,40.697590999999996,0.3548387096774194,22.0,62.0,0.292,0.89,0.7482379876504737,1.9183620722475934,2.4380982076744684,1.2449839524700215,2.3454044247980206,-0.41775534957418453
P.S. 129 JOHN H. FINLEY,05M129,-73.95212099999998,40.814981,0.42,21.0,50.0,0.428,0.93,0.1343662582662999,-0.41668322023928506,-0.9666639138421087,-1.6886719418977103,-0.4460570107603572,0.22649172044445395
P.S. 206 JOSEPH F LAMB,22K206,-73.948515,40.597135,0.4180327868852459,51.0,122.0,0.16699999999999998,0.13,0.5049480106441204,1.1400136414186344,0.9976219254943781,0.9162830119246179,1.3115298190356584,0.5680909487732263
MOTT HALL CHARTER SCHOOL,84X177,-73.90238599999998,40.830895,0.20253164556962025,16.0,79.0,0.456,0.98,0.14581347397871153,-0.8058574356537646,-1.0103147102718084,0.546494453811038,-1.10084426107652,-0.43790959074899566
BAYCHESTER MIDDLE SCHOOL,11X532,-73.840576,40.886043,0.1485148514851485,15.0,101.0,0.274,0.95,0.13904878332455003,-0.7539675402651672,-1.0103147102718084,-0.3492156091751891,-1.10084426107652,-0.6419437151444847
J.H.S. 223 THE MONTAUK,20K223,-73.98163100000002,40.634787,0.4251497005988024,142.0,334.0,0.376,0.31,0.35580782951137535,-0.2869584817677911,0.561113961197381,0.7354974946246455,0.001955318403333078,-0.30681275404351444
I.S. 318 EUGENIO MARIA DE HOSTOS,14K318,-73.948503,40.703215,0.44488977955911824,222.0,499.0,0.348,0.8,0.35397255914823433,0.12816068134098657,0.12460599690038392,0.2835337013747144,0.31211770013204176,-0.9292350257369125
I.S. 228 DAVID A. BOODY,21K228,-73.976838,40.600816,0.29739776951672864,160.0,538.0,0.22,0.34,0.37072451679580265,0.20599552442388316,0.6047647576270807,0.3410563659701602,-0.10143214217290315,0.4334746889227343
I.S. 289,02M289,-74.013623,40.716867,0.5,47.0,94.0,0.172,0.21,0.6241937523786794,1.6589125953046078,1.4341298897913752,1.4093344227427238,0.07088029212082389,-1.4710096780456772
EXPLORE EMPOWER CHARTER SCHOOL,84K742,-73.92893000000002,40.672706,0.4727272727272727,26.0,55.0,0.35600000000000004,0.97,0.22660110751917045,-0.6761326971822718,-0.44285435668571227,0.18492341921109307,0.07088029212082389,-0.6229725442892152
THE GORDON PARKS SCHOOL,29Q270,-73.73674100000002,40.674937,0.5223880597014925,35.0,67.0,0.096,0.98,0.26163270681290834,0.30977531520107787,-0.2682511709669135,0.8094552062473616,0.6222800818607503,2.5141862222209146
"I.S. X318 MATH, SCIENCE & TECHNOLOGY THROUGH ARTS",12X318,-73.890063,40.84385,0.18947368421052632,18.0,95.0,0.476,0.97,0.12569617445844714,-1.013417017208154,-0.9666639138421087,-0.8997896845887398,-0.514981984477848,-0.738829403328657
I.S. 027 ANNING S. PRALL,31R027,-74.117592,40.628284,0.2150837988826816,77.0,358.0,0.215,0.63,0.302157615698112,0.25788541981248053,0.16825679333008361,-0.5957413145842415,0.1053427789795693,1.1208345034271974
PREPARATORY ACADEMY FOR WRITERS: A COLLEGE BOARD SCHOOL,29Q283,-73.757899,40.668105,0.18867924528301888,10.0,53.0,0.129,0.91,0.33283956586961316,0.3616652105896752,0.21190758975978333,0.9573706294927935,1.2770673321769128,2.1786183471125593
LAUNCH EXPEDITIONARY LEARNING CHARTER SCHOOL,84K360,-73.935082,40.675732,0.25961538461538464,27.0,104.0,0.363,0.98,0.1720983128320968,-0.9874720695138547,-0.7047591352639105,0.6697573065155646,-1.10084426107652,-0.743279855497829
THE 30TH AVENUE SCHOOL (G&T CITYWIDE),30Q300,-73.922754,40.768259,1.56,39.0,25.0,0.146,0.14,0.8187748527694525,3.085884718491033,2.481749004104168,1.0970685292245903,2.483254372233002,0.37949391034631647
P.S. 008 ROBERT FULTON,13K008,-73.992805,40.70072800000001,0.4883720930232558,42.0,86.0,0.079,0.25,0.6058944427546423,1.6848575429989059,1.1285743147834773,0.8587603473291722,2.0007795562105666,-1.1200538806021338
THE YOUNG SCHOLARS ACADEMY OF THE BRONX,11X289,-73.860155,40.880634,0.0,0.0,105.0,0.32,0.95,0.11095288191171687,-0.9874720695138547,-1.0539655067015081,-1.2038380545932388,-1.10084426107652,-0.9814245692978021
ACHIEVEMENT FIRST CROWN HEIGHTS CHARTER SCHOOL,84K356,-73.936458,40.662087,0.5975609756097561,49.0,82.0,0.255,0.99,0.45023975332904764,0.12816068134098657,1.172225111213177,1.343594234633643,-0.9629943136415381,-0.6031536545826532
BRONX HIGH SCHOOL FOR MEDICAL SCIENCE,09X413,-73.911386,40.839654,0.2272727272727273,10.0,44.0,0.457,0.9,0.34628135999611764,0.07627078595238922,0.3428599790488825,0.4478841716474166,-1.10084426107652,-0.5808454620466762
BROOKLYN STUDIO SECONDARY SCHOOL,21K690,-73.99474599999998,40.604847,0.2261904761904762,19.0,84.0,0.229,0.33,0.348677162305049,0.5951697398383627,-0.0499971888184149,0.32462131894289,0.8290550030132228,0.36980589247054413
EAST-WEST SCHOOL OF INTERNATIONAL STUDIES,25Q281,-73.821454,40.749539,0.6306306306306306,70.0,111.0,0.199,0.28,0.5737955944503235,1.088123746030037,1.9579394469477716,1.2532014759836565,0.6912050555782412,1.411060197450067
P.S. 089 CYPRESS HILLS,19K089,-73.886699,40.677777,0.2833333333333333,17.0,60.0,0.308,0.98,0.1439665705277606,-0.88369227873666,-0.9666639138421087,0.5382769302974038,-0.3771320370428664,0.02464439686336106
IRWIN ALTMAN MIDDLE SCHOOL 172,26Q172,-73.713022,40.742067,0.6057692307692307,189.0,312.0,0.1,0.23,0.4493362316379282,1.088123746030037,1.0849235183537775,1.1217210997654958,0.31211770013204176,2.704627623497358
J.H.S. 190 RUSSELL SAGE,28Q190,-73.851845,40.723014,0.4661246612466125,172.0,369.0,0.112,0.35,0.4543756348065884,0.8027293213927521,1.0412727219240778,0.3574914129974313,0.1053427789795693,0.7148417240222253
P.S. 209 MARGARET MEAD,21K209,-73.961478,40.58677,0.6470588235294118,33.0,51.0,0.19,0.27,0.39445813098081295,0.25788541981248053,0.7357171469161798,0.4314491246201464,0.7945925161544773,0.7550449328535804
ST. HOPE LEADERSHIP ACADEMY CHARTER SCHOOL,84M388,-73.945808,40.814949,0.25882352941176473,22.0,85.0,0.402,0.95,0.1511653324706633,-1.0653069125967514,-0.7484099316936101,1.2696365230109268,-1.10084426107652,0.16713189200895345
J.H.S. 162 LOLA RODRIGUEZ DE TIO,07X162,-73.912036,40.814702,0.0,0.0,116.0,0.493,0.99,0.05488485954308281,-1.2988114418454388,-1.2722194888500065,-1.1791854840523335,-0.4460570107603572,-0.05736349337221413
M.S. 302 LUISA DESSUS CRUZ,08X302,-73.901686,40.81597100000001,0.07647058823529412,13.0,170.0,0.434,0.98,0.1050965532631511,-0.8318023833480627,-0.923013117412409,-2.0009378354158436,-0.8596068530653022,-0.11714617040281623
AMISTAD DUAL LANGUAGE SCHOOL,06M311,-73.92381800000003,40.866522,0.2307692307692308,12.0,52.0,0.303,0.93,0.29803976192449966,-0.23506858637919373,-0.5301559495451117,1.0066757705746041,2.0007795562105666,-0.8875930839121825
"P.S./M.S. 20 P.O.GEORGE J. WERDANN, III",10X020,-73.879012,40.869618,0.5121951219512195,42.0,82.0,0.375,0.82,0.18350297964536091,-0.5723529064050771,-0.7920607281233099,-0.694351596747862,-0.9629943136415381,-1.2196992509064906
CORNERSTONE ACADEMY FOR SOCIAL ACTION MIDDLE SCHOOL (CASA),11X462,-73.830908,40.88306400000001,0.2823529411764706,24.0,85.0,0.227,0.97,0.2610835840453036,-0.13128879560199905,-0.2682511709669135,0.020572948938390852,-1.10084426107652,-0.49290448124516967
J.H.S. 145 ARTURO TOSCANINI,09X145,-73.91377299999998,40.827748,0.0,0.0,125.0,0.454,0.98,0.08510955489728053,-1.169086703373946,-1.2285686924203068,-0.028732192143418902,-1.10084426107652,-0.32287405986913875
TECH INTERNATIONAL CHARTER SCHOOL,84X258,-73.90708599999998,40.880836,0.0,0.0,92.0,0.362,0.95,0.16512889000738135,-0.7020776448765699,-0.7920607281233099,-1.0970102489159823,-1.10084426107652,-1.217831065141646
KINGSBOROUGH EARLY COLLEGE SCHOOL,21K468,-73.986144,40.593624,0.1875,15.0,80.0,0.26,0.51,0.30410139971863537,0.1800505767295839,-0.1372987816778143,-0.012297145116148678,1.2081423584594224,0.5967844665637021
YOUNG WOMEN'S LEADERSHIP SCHOOL OF THE BRONX,09X568,-73.908447,40.84852100000001,0.37974683544303794,30.0,79.0,0.424,0.97,0.3703314008564706,0.3616652105896752,-0.006346392388715195,-0.0944723802524998,1.8629296087755849,-0.7784924995895004
P.S./I.S. 104 THE FORT HAMILTON SCHOOL,20K104,-74.028588,40.618025,0.5240963855421686,87.0,166.0,0.194,0.28,0.4366796119355555,0.7248944783098555,0.7357171469161798,0.842325300301901,0.1053427789795693,0.28203367595674467
THE MATH & SCIENCE EXPLORATORY SCHOOL,15K447,-73.980355,40.683835,0.783625730994152,134.0,171.0,0.111,0.37,0.7795246388937163,2.281591339967775,2.263495021955669,1.4504220403108992,2.1041670167868025,-1.366795925704921
J.H.S. 054 BOOKER T. WASHINGTON,03M054,-73.962802,40.800512,1.028,257.0,250.0,0.102,0.2,0.7548505391394196,2.3853711307449696,2.4380982076744684,1.351811758147278,1.794004635058094,0.5032963293556437
THE HUNTS POINT SCHOOL,08X424,-73.885238,40.815594,0.0,0.0,100.0,0.4270000000000001,0.98,0.06291771577836314,-1.1171968079853487,-1.3158702852797064,-0.9080072081023758,-0.9285318267827927,-0.11762743361549936
J.H.S. 259 WILLIAM MCKINLEY,20K259,-74.014758,40.626227,0.5440140845070423,309.0,568.0,0.236,0.23,0.5277364583253454,0.9843439552528422,1.3904790933616753,0.8094552062473616,0.20873023955580552,0.01733604629881547
I.S. 206 ANN MERSEREAU,10X206,-73.906275,40.859604,0.10526315789473684,8.0,76.0,0.441,0.97,0.10735554369986178,-1.2469215464568415,-0.923013117412409,-1.1052277724296176,-1.10084426107652,-1.0099189459299565
"SCHOOL FOR HUMAN RIGHTS, THE",17K531,-73.943838,40.658665,0.0,0.0,46.0,0.277,0.97,0.21895965010677076,-0.41668322023928506,-0.8793623209827093,0.6861923535428348,0.6222800818607503,-0.6352597338021252
THE EQUALITY CHARTER SCHOOL,84X488,-73.82396,40.864136,0.34444444444444444,31.0,90.0,0.242,0.97,0.24362017984432532,-0.261013534073493,-0.5738067459748114,0.842325300301901,-0.2737445764666302,-0.3401525395026522
SCHOOL FOR GLOBAL LEADERS,01M378,-73.985957,40.720185,0.2235294117647059,19.0,85.0,0.378,0.81,0.20554741935265042,-0.5204630110164797,-0.5738067459748114,-1.0394875843205367,-0.4805194976191026,-1.027901158112433
J.H.S. 143 ELEANOR ROOSEVELT,06M143,-73.931106,40.849099,0.1328125,17.0,128.0,0.348,0.97,0.12008483820946328,-1.0912518602910495,-1.0539655067015081,-0.29991046809337757,-0.342669550184121,-0.5678267423174034
LEADERS OF TOMORROW,11X370,-73.860155,40.880634,0.21323529411764705,29.0,136.0,0.309,0.9,0.09790425545854128,-1.0653069125967514,-1.2285686924203068,-0.7354392143160375,-0.9629943136415381,-0.9814245692978021
LYONS COMMUNITY SCHOOL,14K586,-73.944519,40.709765000000004,0.12,6.0,50.0,0.429,0.97,0.05642870453721208,-1.1171968079853487,-1.359521081709406,-1.803717271088602,-1.10084426107652,-0.7896525822880514
I.S. 313 SCHOOL OF LEADERSHIP DEVELOPMENT,09X313,-73.90454,40.840589,0.08490566037735849,9.0,106.0,0.482,0.99,0.08869412359681078,-1.2728664941511407,-1.0539655067015081,-0.8176144494523886,-1.10084426107652,-0.6367663812759158
EAST NEW YORK FAMILY ACADEMY,19K409,-73.886779,40.661208,0.13333333333333333,10.0,75.0,0.375,0.95,0.30240743321120034,0.1800505767295839,-0.18094957810751403,0.4232316011065113,0.1053427789795693,0.12173737564436164
P.S. 282 PARK SLOPE,13K282,-73.977783,40.676626,0.3877551020408163,38.0,98.0,0.217,0.85,0.2688988687098478,-0.053453952519103586,-0.3119019673966132,-1.0887927254023482,-0.514981984477848,-1.2243578653689065
KAPPA,09X215,-73.903937,40.833708,0.4032258064516129,25.0,62.0,0.471,0.93,0.2770813571860812,-0.15723374329629827,-0.3119019673966132,-0.18486513890248693,0.6912050555782412,-0.4930717834576181
I.S. 051 EDWIN MARKHAM,31R051,-74.14529499999998,40.623011,0.2525,101.0,400.0,0.237,0.66,0.20765810918135327,-0.1831786909905964,-0.3119019673966132,-0.7847443553978491,-0.03250716845541232,1.5247763458576806
"BRONX SCHOOL FOR LAW, GOVERNMENT AND JUSTICE",09X505,-73.918927,40.827572,0.13402061855670105,13.0,97.0,0.418,0.96,0.3370441800018926,0.23194047211818125,-0.1372987816778143,0.37392646002470153,1.3459923058944039,-0.2887140562523277
I.S. 034 TOTTENVILLE,31R034,-74.24322099999998,40.507803,0.20822622107969152,81.0,389.0,0.09,0.11,0.3753511089082205,1.1919035368072317,0.9976219254943781,-0.06160228619796026,-0.514981984477848,4.460745174477462
J.H.S. 234 ARTHUR W. CUNNINGHAM,22K234,-73.95517099999998,40.604437,0.5623100303951368,370.0,658.0,0.187,0.28,0.5221926336173865,1.4254080660559192,1.0849235183537775,0.6779748300291988,0.4499676475670234,0.38865857904727735
ACADEMY OF ARTS AND LETTERS,13K492,-73.971016,40.691059,0.4,26.0,65.0,0.191,0.57,0.458077815391773,0.7248944783098555,0.38651077547858215,1.1874612878745756,0.8979799767307135,-1.3878795028148352
I.S. 061 LEONARDO DA VINCI,24Q061,-73.862808,40.742087,0.12516823687752354,93.0,743.0,0.287,0.92,0.21661246178345303,-0.4426281679335831,-0.44285435668571227,0.472536742188322,0.03641780526207848,0.7308245922760214
"THE QUEENS COLLEGE SCHOOL FOR MATH, SCIENCE AND TECHNOLOGY",25Q499,-73.82028000000003,40.738332,0.7692307692307693,40.0,52.0,0.187,0.35,0.5737471456794507,1.5032429091388158,1.5214314826507747,1.433986993283629,1.242604845318168,1.3257926775806446
P.S. 306 ETHAN ALLEN,19K306,-73.88633399999998,40.655261,0.0,0.0,39.0,0.47,0.98,0.05855322305059224,-1.0912518602910495,-1.0976163031312078,-2.1077656410931,-0.9629943136415381,0.1816018727287384
P.S./I.S. 384 FRANCES E. CARTER,32K384,-73.904832,40.68977,0.12307692307692307,8.0,65.0,0.3670000000000001,0.97,0.1739345685365011,-0.3907382725449858,-0.8357115245530096,-0.5217836029615256,-0.9629943136415381,-0.2968877015827516
P.S. 238 ANNE SULLIVAN,21K238,-73.964587,40.608787,0.1891891891891892,14.0,74.0,0.209,0.61,0.22139733460230565,-0.3129034294620903,-0.5301559495451117,-0.0944723802524998,0.24319272641455092,0.2706160596628303
NEW HEIGHTS ACADEMY CHARTER SCHOOL,84M353,-73.945402,40.828615,0.0,0.0,99.0,0.362,1.0,0.21154489554561845,-0.4426281679335831,-0.617457542404511,1.0477633881427797,-1.10084426107652,-0.07737934562218896
P.S. 232 LINDENWOOD,27Q232,-73.851027,40.66585,0.33673469387755106,33.0,98.0,0.146,0.5,0.4082388273478769,0.8546192167813494,0.3428599790488825,0.5218418832701326,1.1736798716006769,0.6591651591683576
PATHWAYS COLLEGE PREPARATORY SCHOOL: A COLLEGE BOARD SCHOOL,29Q259,-73.753793,40.706768,0.07407407407407407,6.0,81.0,0.115,0.94,0.17183101303312256,-0.001564057130506237,-0.923013117412409,1.0395458646291447,-0.23928208960788475,2.238228372903405
THE BOERUM HILL SCHOOL FOR INTERNATIONAL STUDIES,15K497,-73.993634,40.68515900000001,0.7272727272727273,32.0,44.0,0.266,0.77,0.25525777796062965,-1.0393619649024521,-0.0499971888184149,0.028790472452026875,0.4499676475670234,-1.1991701122316814
I.S. 73 - THE FRANK SANSIVIERI INTERMEDIATE SCHOOL,24Q073,-73.89329599999998,40.728596,0.5426997245179064,394.0,726.0,0.206,0.6,0.41942027182184355,0.41355510597827255,0.7357171469161798,0.7437150181382807,0.38104267384953255,0.1440850737455347
THE EQUITY PROJECT CHARTER SCHOOL (TEP),84M430,-73.93304300000001,40.863962,0.3333333333333333,38.0,114.0,0.337,0.98,0.34276554538906395,-0.49451806332218046,0.4738123683379816,1.2038963349018459,-0.4805194976191026,-0.7249874884115804
J.H.S. 052 INWOOD,06M052,-73.925157,40.865914,0.08783783783783784,13.0,148.0,0.35200000000000004,0.97,0.20396851370246372,-0.5778040921819618,-0.8610229874889078,0.29275586868962683,0.23735378158873804,-0.9451556239508181
BRONX WRITING ACADEMY,09X323,-73.914142,40.832278,0.19463087248322147,29.0,149.0,0.464,0.95,0.11723518751268003,-0.8208138383489784,-0.904288169566209,-1.919662181975848,-0.849557548340273,-0.4589901265341644
P.S. 034 FRANKLIN D. ROOSEVELT,01M034,-73.975043,40.726147,0.0967741935483871,6.0,62.0,0.529,0.92,0.2168130792571526,-0.09178459984792775,-0.731227441257004,-0.7277005190204185,-0.9582486813331739,-0.904235348236964
I.S. 145 JOSEPH PULITZER,30Q145,-73.88759399999998,40.754326,0.1976911976911977,137.0,693.0,0.219,0.9,0.3029349307378562,-0.22679001438515886,0.04754583613441945,0.9873522334334384,0.7445790688889432,0.6064677079336801
P.S./I.S. 295,29Q295,-73.731394,40.720729999999996,0.45,27.0,60.0,0.107,0.53,0.36592764689422397,0.8262522190052466,0.39366729275282986,0.8072716944257842,1.2518043561891483,2.865910783184915
CORONA ARTS AND SCIENCES ACADEMY,24Q311,-73.871482,40.743204,0.13333333333333333,16.0,120.0,0.247,0.95,0.3090958334448302,-0.11878568275537349,-0.25531043840668965,1.5104433229318641,2.1937941754609573,0.6662805480844691
COMPREHENSIVE MODEL SCHOOL PROJECT M.S. 327,09X327,-73.916384,40.842811,0.15306122448979592,15.0,98.0,0.458,0.99,0.39949669833184964,0.3402327266712137,0.48019765690743244,-0.12743205566156832,0.8532702018818443,-0.6694920435201495
HARBOR SCIENCE AND ARTS CHARTER SCHOOL,84M704,-73.944526,40.795537,0.18421052631578946,7.0,38.0,0.375,0.93,0.28216137362249144,1.0692619651722644,-0.6446970771024013,-0.37611470476737774,-0.9582486813331739,0.5610859032047659
P.S./M.S. 147 RONALD MCNAIR,29Q147,-73.740151,40.698026,0.13043478260869565,9.0,69.0,0.092,0.97,0.11714216549198647,-0.28079218020005153,-0.9908185337208117,-0.11028152813702974,-0.1249499950542656,2.6498561490861636
P.S./I.S. 208,29Q208,-73.727581,40.744184000000004,0.32941176470588235,28.0,85.0,0.106,0.87,0.36851328082724866,0.934256550635032,0.35040211067552857,1.3560885752110168,0.2735841592530384,2.7080409680535773
BACCALAUREATE SCHOOL FOR GLOBAL EDUCATION,30Q580,-73.926963,40.755048,0.8952380952380953,94.0,105.0,0.145,0.17,0.9397944313901136,3.769370255916896,3.0328433994682094,1.7677012357999426,2.4836371967753608,0.16844581076577553
BROOKLYN DREAMS CHARTER SCHOOL,84K791,-73.969817,40.632144,0.6041666666666666,29.0,48.0,0.231,0.75,0.34782923933104765,-0.09178459984792775,0.48019765690743244,0.1727021760178568,-0.269871505711467,-0.27742401927148413
EVERGREEN MIDDLE SCHOOL FOR URBAN EXPLORATION,32K562,-73.91033,40.688922,0.101010101010101,10.0,99.0,0.318,0.96,0.12466294056417515,-1.0908246674234416,-1.0773488978754144,0.9273253870975533,-1.1031701919903754,-0.4315029822732912
J.H.S. 078 ROY H. MANN,22K078,-73.912988,40.620767,0.16587677725118485,35.0,211.0,0.134,0.83,0.19021272855312935,-0.550803009274515,-0.5149015308704975,-0.11028152813702974,-0.6684056600187711,0.35512131004957315
WASHINGTON HEIGHTS EXPEDITIONARY LEARNING SCHOOL,06M348,-73.931106,40.849099,0.07142857142857142,6.0,84.0,0.354,0.97,0.306786145873071,-0.09178459984792775,-0.3418408025612923,0.3699332425500495,1.7590296434893535,-0.6260571708660863
P.S. 099 ISAAC ASIMOV,21K099,-73.96600600000002,40.621492,0.18888888888888888,17.0,90.0,0.33,0.26,0.3490100479814865,0.286230560856321,0.35040211067552857,-0.6333726176354564,0.16489302626013735,-0.018587038822946347
WADLEIGH SECONDARY SCHOOL FOR THE PERFORMING & VISUAL ARTS,03M415,-73.95408,40.802284,0.0,0.0,12.0,0.375,0.96,0.043768477569800845,-1.2798322477755655,-1.293674808261921,-1.1993400259452285,-0.23364112804716672,0.505389017015153
KIPP INFINITY CHARTER SCHOOL,84M336,-73.95724,40.819764,0.17045454545454544,15.0,88.0,0.375,0.98,0.4916625628103618,0.23222839504142834,1.4752968446853623,0.5242879902708967,1.5778777551678518,0.20471943748485386
BRONX PREPARATORY CHARTER SCHOOL,84X703,-73.90019000000002,40.839046,0.1774193548387097,22.0,124.0,0.436,0.98,0.28572416857201366,-0.33479434601494423,-0.08224971009748447,0.9959274971957067,-1.1031701919903754,-0.6825682375008576
THE CHRISTA MCAULIFFE SCHOOL\I.S. 187,20K187,-74.004003,40.627847,0.7317784256559767,251.0,343.0,0.234,0.07,0.8900546421968354,3.553361592657325,2.859782671159004,1.5790454330300183,1.106882845531947,-0.09908655108219003
P.S./M.S. 11X498 - VAN NEST ACADEMY,11X498,-73.85797600000002,40.845031,0.37894736842105264,36.0,95.0,0.273,0.78,0.36930755452031333,0.3672338095786594,0.26387174652092593,0.8072716944257842,-0.9582486813331739,-0.6425918190898271
P.S. 161 PEDRO ALBIZU CAMPOS,05M161,-73.95245899999998,40.817721,0.14035087719298245,16.0,114.0,0.426,0.95,0.17772144893865158,-0.6318062579968545,-0.4716363487931962,-1.096436860797997,-0.5234841493615696,0.18782833349839556
PELHAM ACADEMY OF ACADEMICS AND COMMUNITY ENGAGEMENT,11X468,-73.864588,40.86206,0.267175572519084,35.0,131.0,0.332,0.82,0.2977198189230967,-0.14578676566282042,-0.12551489217478573,-0.17030837447291478,-0.0887196173899652,-1.0198084202225866
M.S. 319 - MARIA TERESA,06M319,-73.935772,40.839408,0.13846153846153847,27.0,195.0,0.353,0.98,0.22317187408844208,-0.7938127554415314,-0.3418408025612923,0.3356321875009733,-0.0887196173899652,-0.40141055822737726
I.S. 171 ABRAHAM LINCOLN,19K171,-73.869429,40.685841,0.07096774193548387,11.0,155.0,0.314,0.91,0.16111005060502392,-0.6588073409043003,-0.8610229874889078,-0.041679418038875427,0.09243227093153661,0.3092168791339155
I.S. 49 BERTA A. DREYFUS,31R049,-74.080771,40.620483,0.16216216216216214,42.0,259.0,0.277,0.76,0.1432549758374428,-0.550803009274515,-0.731227441257004,-0.9506573768394192,-0.6321752823544707,0.8560469867832594
I.S. 5 - THE WALTER CROWLEY INTERMEDIATE SCHOOL,24Q005,-73.887429,40.737757,0.4392678868552413,264.0,601.0,0.197,0.54,0.46421100694443274,0.8802543848201393,0.9128494776804454,1.1760080362033627,-0.269871505711467,0.3560333026991654
MARK TWAIN I.S. 239 FOR THE GIFTED & TALENTED,21K239,-73.992391,40.57866,0.8795811518324608,336.0,382.0,0.16,0.12,0.7417617621367586,2.743329105433935,2.254070122076786,1.1074059261052085,1.43295624451065,1.002356856722598
P.S./I.S. 224,07X224,-73.91839,40.810207,0.0,0.0,131.0,0.506,0.98,0.08170440265643544,-0.9018170870713167,-1.1206140799527156,-1.4737484663378457,-1.1031701919903754,0.06176445614789727
MOTT HALL II,03M862,-73.96595,40.802678,0.5818181818181818,64.0,110.0,0.231,0.63,0.5685302885541411,1.6092836233211898,1.0859102059896508,1.2446101463015171,2.3387156861181593,0.560276639080827
P.S./M.S. 031 THE WILLIAM LLOYD GARRISON,07X031,-73.921487,40.822539,0.1111111111111111,9.0,81.0,0.379,0.96,0.09440979272560904,-1.1448268332383345,-0.9475533516435104,-1.5337753126737308,-0.5234841493615696,-0.19500684818314562
METROPOLITAN EXPEDITIONARY LEARNING SCHOOL,28Q167,-73.861195,40.712046,0.175,21.0,120.0,0.162,0.57,0.3735021671411798,0.6912468044680155,0.04754583613441945,1.390389630260094,0.38227529224593954,0.527533386760912
P.S. 333 MANHATTAN SCHOOL FOR CHILDREN,03M333,-73.97077,40.791685,0.29411764705882354,15.0,51.0,0.159,0.27,0.5538957691437465,1.5552814575062972,1.2157057522215544,0.9530511783843603,0.5996575582317417,0.28621081112217206
BRONX EARLY COLLEGE ACADEMY FOR TEACHING & LEARNING,09X324,-73.917661,40.828111,0.16666666666666666,13.0,78.0,0.44,0.95,0.13551508216861155,-0.9288181699787637,-0.8610229874889078,-0.5733457712995713,-0.7408664153473717,-0.34363443925703124
LEADERSHIP PREPARATORY OCEAN HILL CHARTER SCHOOL,84K775,-73.906225,40.672333,0.5657894736842105,43.0,76.0,0.34,0.96,0.619848644910755,1.0152597993573715,1.9079486654583753,0.8415727494748604,2.3387156861181593,-0.29783752050488177
P.S. 207 ROCKWOOD PARK,27Q207,-73.844039,40.657832,0.19718309859154928,14.0,71.0,0.047,0.21,0.46677219663982794,0.961257633542479,0.9128494776804454,1.1417069811542855,0.38227529224593954,0.8781755301008645
P.S./ I.S. 155 NICHOLAS HERKIMER,23K155,-73.908695,40.677642,0.21052631578947367,8.0,38.0,0.35700000000000004,0.96,0.11056978367322562,-1.009821418701102,-0.7744926233343052,-2.0482911384098874,-0.9582486813331739,-0.3731552146735414
ACADEMY FOR COLLEGE PREPARATION AND CAREER EXPLORATION: A COLLEGE BOARD SCHOOL,17K382,-73.957176,40.649588,0.2830188679245283,15.0,53.0,0.257,0.96,0.196498413071768,-0.6588073409043003,-0.8177578054116065,0.618615891655859,-0.052489239725664855,-0.63301651341073
BROOKLYN SCIENCE AND ENGINEERING ACADEMY,18K763,-73.925602,40.647918,0.4788732394366197,34.0,71.0,0.18600000000000005,0.97,0.27713920791405117,-0.33479434601494423,-0.1687800742520871,0.6786427379917449,-0.0887196173899652,-0.2892955130360972
P.S. 121 NELSON A. ROCKEFELLER,21K121,-73.978774,40.622876,0.2413793103448276,7.0,29.0,0.268,0.45,0.40908539321468085,0.448237058300999,0.5234628389847338,0.7901211669012447,0.5634271805674413,-0.06255997617343047
RONALD EDMONDS LEARNING CENTER II,17K484,-73.920067,40.673118,0.14583333333333334,7.0,48.0,0.364,0.96,0.16492342829160564,-0.5238019263670692,-0.9908185337208117,-0.4018404960541856,-0.3785626387043682,-0.541004946997773
FANNIE LOU HAMER MIDDLE SCHOOL,12X286,-73.886584,40.831394,0.0,0.0,94.0,0.442,0.97,0.12821449409010213,-0.7668116725340857,-1.1206140799527156,-0.11028152813702974,-1.1031701919903754,-0.5133691817706133
JAMES WELDON JOHNSON,04M057,-73.941285,40.797156,0.20618556701030927,20.0,97.0,0.404,0.93,0.22761084070881366,-0.14578676566282042,-0.3851059846385936,-0.7877273653563036,0.019971515602935887,0.501056826722563
J.H.S. 008 RICHARD S. GROSSLEY,28Q008,-73.786396,40.696913,0.0851063829787234,12.0,141.0,0.217,0.77,0.12517179794013245,-0.8208138383489784,-0.4716363487931962,-1.122162652084805,-0.55971452702587,1.8137913131048373
OCEAN HILL COLLEGIATE CHARTER SCHOOL,84K777,-73.915211,40.678113,0.5679012345679012,46.0,81.0,0.321,0.94,0.4975027278934935,0.3132316437637667,1.2589709342988558,0.618615891655859,1.8314903988179538,-0.4905528200898095
THE URBAN ASSEMBLY UNISON SCHOOL,13K351,-73.960549,40.684336,0.42857142857142855,21.0,49.0,0.303,0.82,0.12509999543960698,-0.8208138383489784,-1.034083715798113,-1.66240426910777,-1.1031701919903754,-1.319836523418133
P.S./I.S. 30 MARY WHITE OVINGTON,20K030,-74.02422,40.633733,0.3863636363636364,51.0,132.0,0.246,0.31,0.4144873386210133,0.5292403070233375,0.6099932031393364,0.7729706393767061,-0.052489239725664855,-0.06377306843859742
P.S. 178 SAINT CLAIR MCKELWAY,23K178,-73.915306,40.675234,0.0,0.0,28.0,0.42,0.95,0.15075929322664935,-0.6858084238117472,-0.6879622591797027,-1.7224311154436551,-0.9582486813331739,-0.4749138621800233
J.H.S. 050 JOHN D. WELLS,14K050,-73.960049,40.711863,0.08139534883720931,7.0,86.0,0.405,0.96,0.1673034911954313,-1.036822501608549,-0.6014318950251001,-0.35896417724283913,-1.1031701919903754,-1.0078398509003383
HOSTOS-LINCOLN ACADEMY OF SCIENCE,07X500,-73.912036,40.814702000000004,0.0,0.0,68.0,0.445,0.94,0.20887442777936727,-0.6858084238117472,-0.5581667129477987,0.1641269122555875,0.5996575582317417,-0.07196522276773554
P.S./I.S. 323,23K323,-73.91127,40.666247,0.15625,10.0,64.0,0.457,0.98,0.13392202647637563,-0.5238019263670692,-0.9475533516435104,-1.6967053241568464,-0.9582486813331739,-0.3317796293975177
UNITY PREP CHARTER SCHOOL,84K757,-73.940924,40.686208,0.14563106796116504,15.0,103.0,0.322,0.95,0.22625975493700506,-0.6858084238117472,-0.3851059846385936,0.3699332425500495,-1.1031701919903754,-0.9813771396548859
I.S. 237,25Q237,-73.821454,40.749539,0.4754901960784314,194.0,408.0,0.199,0.25,0.4594593654105592,0.5562413899307844,1.3455012984534584,0.9273253870975533,0.23735378158873804,1.5219629300663822
M.S. 442 CARROLL GARDENS SCHOOL FOR INNOVATION,15K442,-73.991704,40.680431,0.36764705882352944,25.0,68.0,0.255,0.73,0.31883592574949016,-0.41579759473728384,0.3071369285982273,-0.4532920786278013,-0.3423322610400678,-1.2926211207604112
RIVERDALE / KINGSBRIDGE ACADEMY (MIDDLE SCHOOL / HIGH SCHOOL 141),10X141,-73.913605,40.887701,0.28735632183908044,75.0,261.0,0.141,0.66,0.4594553568663138,0.6102435557456771,0.5667280210620351,0.9616264421466305,0.9619613348747454,-1.1636772191842026
P.S. 122 MAMIE FAY,30Q122,-73.91658000000002,40.780311,0.9135802469135802,74.0,81.0,0.16899999999999998,0.27,0.6822948309341643,2.3383128618222404,1.7348879371491701,0.8844490682862068,2.6647890850968623,0.6666833242624542
J.H.S. 292 MARGARET S. DOUGLAS,19K292,-73.89345300000002,40.671887,0.3584070796460177,81.0,226.0,0.387,0.86,0.26224101379502945,-0.33479434601494423,0.004280654057118155,-1.0278347506998426,0.05620189326723625,-0.07300826978364451
THE 47 AMERICAN SIGN LANGUAGE & ENGLISH LOWER SCHOOL,02M347,-73.981534,40.738621,0.0,0.0,7.0,0.353,0.68,0.23032408924637954,-0.5238019263670692,-0.42837116671589487,-0.4104157598164549,-0.23364112804716672,-0.868158474412911
ELIJAH STROUD MIDDLE SCHOOL,17K353,-73.96086700000002,40.674551,0.08823529411764706,6.0,68.0,0.253,0.96,0.1600339724446596,-0.9558192528862094,-0.6446970771024013,-1.122162652084805,-1.1031701919903754,-1.186185442142511
P.S. 071 ROSE E. SCALA,08X071,-73.829638,40.845595,0.4948453608247423,96.0,194.0,0.16699999999999998,0.66,0.35702945798729696,0.3942348924861064,0.13407620028902206,0.0011969007724710193,0.49096642523884065,-0.2809954501426285
I.S. 285 MEYER LEVIN,18K285,-73.920775,40.647443,0.19230769230769232,45.0,234.0,0.199,0.99,0.21850261715552818,-0.09178459984792775,-0.7744926233343052,-0.2989373309069541,0.05620189326723625,-0.2199361486802477
I.S. R002 GEORGE L. EGBERT,31R002,-74.10015,40.577094,0.2631578947368421,75.0,285.0,0.126,0.34,0.3149786552575725,0.5022392241158917,0.22060656444362464,-0.08455573685022187,-0.052489239725664855,1.8389955842447365
INWOOD ACADEMY FOR LEADERSHIP CHARTER SCHOOL,84M478,-73.920884,40.869008,0.15625,20.0,128.0,0.345,0.98,0.2734869497006839,-0.550803009274515,-0.1687800742520871,0.7558201118521676,-0.55971452702587,-1.045366704666252
BRONX PARK MIDDLE SCHOOL,11X556,-73.864588,40.86206,0.3795620437956204,52.0,137.0,0.316,0.83,0.1741425711266201,-0.874816004163871,-0.6014318950251001,-0.6676736726845326,-1.1031701919903754,-1.0198084202225866
P.S. 048 WILLIAM G. WILCOX,31R048,-74.091981,40.602835,0.7291666666666666,70.0,96.0,0.099,0.22,0.5202531117319742,1.4202760429690662,1.2157057522215544,1.0473790797693234,0.4547360475745402,1.2893620402703587
M.S. 301 PAUL L. DUNBAR,08X301,-73.906686,40.82230300000001,0.0,0.0,74.0,0.388,0.98,0.06444489101097994,-1.46883982812769,-1.0773488978754144,-0.7620015740694958,-1.1031701919903754,-0.26973403814408436
P.S. 050 VITO MARCANTONIO,04M050,-73.940587,40.785868,0.2916666666666667,7.0,24.0,0.386,0.98,0.04137855379547961,-1.1178257503308875,-1.163879262030017,-2.245522204942081,-0.9582486813331739,0.45562884231984996
ACHIEVEMENT FIRST BUSHWICK CHARTER SCHOOL,84K538,-73.919072,40.697891999999996,0.5955056179775281,53.0,89.0,0.32299999999999995,0.99,0.577302852153693,0.5832424728382302,2.0810093937675807,1.596195960554557,-0.9582486813331739,-0.5678661624143553
THE MICHAEL J. PETRIDES SCHOOL,31R080,-74.105262,40.608441,0.24175824175824176,22.0,91.0,0.184,0.42,0.4298407304124214,0.8532533019126936,0.5234628389847338,0.7729706393767061,2.302485308453859,1.3792461359457584
EAGLE ACADEMY FOR YOUNG MEN II,23K644,-73.915211,40.678113,0.13953488372093026,12.0,86.0,0.333,0.97,0.28985183010769067,-0.6588073409043003,-0.03898452802018316,0.652916946704936,1.2518043561891483,-0.4905528200898095
BRONX LATIN,12X267,-73.900529,40.827387,0.0,0.0,84.0,0.423,0.98,0.22935667082009314,-0.4697997605521765,-0.5581667129477987,-0.17030837447291478,0.7808094465532435,-0.408264167112494
EXPLORE CHARTER SCHOOL,84K704,-73.951462,40.656389,0.6851851851851852,37.0,54.0,0.239,0.96,0.2377995078380583,-0.41579759473728384,-0.5581667129477987,0.5328632540331669,-0.269871505711467,-0.7343382924775349
HAMILTON GRANGE MIDDLE SCHOOL,06M209,-73.952995,40.820988,0.24,18.0,75.0,0.363,0.96,0.17619338444422572,-1.1448268332383345,-0.3851059846385936,0.09552480215743225,-0.1249499950542656,0.13317086536512562
NORTH BRONX SCHOOL OF EMPOWERMENT,11X287,-73.860155,40.880634,0.24731182795698925,23.0,93.0,0.305,0.92,0.11900001331927526,-0.9828203357936564,-1.034083715798113,-0.9935336956507655,-1.1031701919903754,-1.0750047222407388
LAFAYETTE ACADEMY,03M256,-73.97077,40.791685,0.19642857142857145,11.0,56.0,0.297,0.88,0.1728727841519124,-0.6588073409043003,-0.5581667129477987,-0.7191252552581493,-0.4147930163686685,0.28621081112217206
BROOKLYN EAST COLLEGIATE CHARTER SCHOOL,84K780,-73.96634,40.678584,0.627906976744186,54.0,86.0,0.257,0.9,0.43974053812838676,0.23222839504142834,0.6099932031393364,0.19414033542352954,1.8677207764822543,-1.3228190409270015
J.H.S. 217 ROBERT A. VAN WYCK,28Q217,-73.811875,40.710509,0.3064798598949212,175.0,571.0,0.238,0.55,0.3261554256727536,0.3402327266712137,0.22060656444362464,-0.2903620671446848,1.0706524678676466,1.3916117312629097
THE EMERSON SCHOOL,28Q287,-73.786396,40.696913,0.1590909090909091,21.0,132.0,0.223,0.79,0.12676143958385722,-0.7938127554415314,-0.6014318950251001,-0.6333726176354564,-0.269871505711467,1.8137913131048373
M.S. 324 - PATRIA MIRABAL,06M324,-73.935772,40.839408,0.12269938650306747,20.0,163.0,0.34700000000000003,0.95,0.25564517206352433,-0.4968008434596222,-0.21204525632938837,0.4556858801727424,-0.3785626387043682,-0.40141055822737726
NEW HEIGHTS MIDDLE SCHOOL,17K722,-73.936458,40.662087,0.11403508771929825,13.0,114.0,0.276,0.93,0.12575997508082198,-1.0638235845159947,-0.8177578054116065,-0.9506573768394192,-1.1031701919903754,-0.6644034331636943
I.S. 204 OLIVER W. HOLMES,30Q204,-73.932648,40.756628000000006,0.16766467065868262,28.0,167.0,0.319,0.71,0.26182032604047717,0.016219731781857608,-0.298575620483991,-0.16173311071064644,-0.4147930163686685,0.0993534088684528
"URBAN ASSEMBLY SCHOOL FOR APPLIED MATH AND SCIENCE, THE",09X241,-73.901895,40.839457,0.14285714285714285,13.0,91.0,0.486,0.98,0.2300814726237631,-0.7668116725340857,-0.25531043840668965,-0.7534263103072255,0.49096642523884065,-0.686158507375515
SUCCESS ACADEMY CHARTER SCHOOL - HARLEM 3,84M385,-73.944549,40.796046,0.2959183673469388,29.0,98.0,0.369,0.94,0.6721892672403262,2.095303115655224,2.4271308503859914,0.19414033542352954,-0.9582486813331739,0.5504318214999778
JEAN NUZZI INTERMEDIATE SCHOOL,29Q109,-73.746572,40.720412,0.3577981651376147,117.0,327.0,0.13,0.61,0.26278600827507015,0.04322081468930335,0.09081101821172076,0.6357664191803984,-0.0887196173899652,2.5944421968249283
J.H.S. 104 SIMON BARUCH,02M104,-73.980611,40.735735,0.6451612903225806,260.0,403.0,0.174,0.29,0.6166713035442585,1.4472771258765118,1.6483575729945674,1.0559543435315926,0.49096642523884065,-0.8969741188206927
THE LABORATORY SCHOOL OF FINANCE AND TECHNOLOGY: X223,07X223,-73.920477,40.813507,0.18181818181818185,18.0,99.0,0.496,0.99,0.38746714697789564,0.286230560856321,0.43693247483013115,0.4385353526482038,0.9981917125390458,-0.001028758170848617
J.H.S. 218 JAMES P. SINNOTT,19K218,-73.87455600000001,40.670064,0.1678832116788321,23.0,137.0,0.402,0.79,0.12178757182291305,-0.9558192528862094,-0.6014318950251001,-2.425602743949735,-0.16118037271856595,0.2687612248773045
P.S. 105 THE BAY SCHOOL,27Q105,-73.781257,40.595904,0.07865168539325842,7.0,89.0,0.394,0.94,0.057607101503341474,-0.8208138383489784,-0.9475533516435104,-1.7224311154436551,-0.0887196173899652,2.5370649750613787
M.S. 390,10X390,-73.913024,40.854366999999996,0.16,24.0,150.0,0.516,0.98,0.1770951534549171,-0.9828203357936564,-0.6879622591797027,0.1898527035423954,-0.6321752823544707,-0.934960277007076
J.H.S. 226 VIRGIL I. GRISSOM,27Q226,-73.816692,40.675063,0.19795221843003413,58.0,293.0,0.16399999999999998,0.55,0.1988747504145752,-0.3887965118298369,-0.3851059846385936,-0.12743205566156832,-0.269871505711467,1.279969481132104
P.S. 189 THE BILINGUAL CENTER,17K189,-73.92568100000003,40.665446,0.3525179856115108,49.0,139.0,0.309,0.97,0.4251552441747654,0.3942348924861064,0.7397887493712404,0.035497955821548174,0.5634271805674413,-0.553766047775028
P.S./M.S. 004 CROTONA PARK WEST,09X004,-73.898492,40.841242,0.125,7.0,56.0,0.439,0.98,0.19239223138972356,-0.6318062579968545,-0.25531043840668965,-2.3913016889006586,-0.9582486813331739,-0.7390909409746089
HARLEM VILLAGE ACADEMY CHARTER SCHOOL,84M709,-73.944012,40.806558,0.12121212121212123,8.0,66.0,0.361,0.98,0.3116043437020594,-0.550803009274515,0.5667280210620351,0.9101748595730138,-0.9582486813331739,0.3251174506079019
I.S. 077,24Q077,-73.901988,40.699269,0.18885448916408668,61.0,323.0,0.275,0.79,0.2400380251988928,-0.5238019263670692,-0.3851059846385936,0.3099063962141645,0.2735841592530384,-0.2584956698282734
"P.S. 279 CAPTAIN MANUEL RIVERA, JR.",10X279,-73.905024,40.854751,0.304,38.0,125.0,0.491,0.96,0.2052448922431927,-0.6858084238117472,-0.731227441257004,0.28418060492735664,-0.1249499950542656,-1.0149631324340775
EAGLE ACADEMY FOR YOUNG MEN OF HARLEM,05M148,-73.947238,40.817282,0.16666666666666666,10.0,60.0,0.342,0.98,0.11471524969752156,-0.6858084238117472,-1.034083715798113,-1.713855851681386,-0.0887196173899652,0.1403897528438892
THE SCIENCE AND MEDICINE MIDDLE SCHOOL,18K366,-73.891766,40.647417,0.25925925925925924,42.0,162.0,0.208,0.99,0.22319176869706536,-0.11878568275537349,-0.6446970771024013,0.1727021760178568,-0.269871505711467,0.1932700714977981
M.S. 250 WEST SIDE COLLABORATIVE MIDDLE SCHOOL,03M250,-73.973988,40.79511,0.0,0.0,61.0,0.266,0.87,0.23257286520574055,0.2592294779488741,-0.6014318950251001,-0.24748574833333933,-1.1031701919903754,0.3389230916778761
EAST BRONX ACADEMY FOR THE FUTURE,12X271,-73.887671,40.83683900000001,0.13861386138613865,14.0,101.0,0.456,0.98,0.16393220592418412,-0.7668116725340857,-0.6879622591797027,-1.748156906730462,0.12866264859583698,-0.6436545801730987
QUEENS COLLEGIATE: A COLLEGE BOARD SCHOOL,28Q310,-73.797066,40.713395,0.27586206896551724,24.0,87.0,0.195,0.66,0.27951862519232096,-0.11878568275537349,0.04754583613441945,0.29275586868962683,1.106882845531947,1.6670123018230691
HELLENIC CLASSICAL CHARTER SCHOOL,84K362,-73.992106,40.662963,1.022222222222222,46.0,45.0,0.24,0.66,0.5861579326235372,1.1502652138946026,1.4752968446853623,1.4675670041205175,0.49096642523884065,-0.9546258050071245
M.S. 158 MARIE CURIE,26Q158,-73.77232,40.756375,0.6941176470588235,236.0,340.0,0.093,0.19,0.5867282813770816,1.7172879549509752,1.7781531192264715,1.2017338274901705,0.5996575582317417,1.9692120824813693
ACHIEVEMENT FIRST ENDEAVOR CHARTER SCHOOL,84K508,-73.965924,40.682396,0.3764705882352941,32.0,85.0,0.297,0.99,0.5063742763614575,0.286230560856321,1.3887664805307596,1.630497015603634,-0.9582486813331739,-1.3826424271360622
ICAHN CHARTER SCHOOL 2,84X378,-73.85797600000002,40.845031,0.9393939393939394,31.0,33.0,0.287,0.91,0.5815783487365757,1.285270628431835,1.7348879371491701,0.20700323106693397,-0.30610188337576744,-0.6425918190898271
SOUTH BRONX ACADEMY FOR APPLIED MEDIA,07X296,-73.905333,40.818906,0.05555555555555555,6.0,108.0,0.469,0.97,0.1011210671350346,-1.036822501608549,-0.904288169566209,-1.8853611269267707,-0.4872537716972693,-0.19540986236766433
HAWTREE CREEK MIDDLE SCHOOL,27Q297,-73.816692,40.675063,0.15432098765432098,25.0,162.0,0.159,0.66,0.21697245425811978,-0.09178459984792775,-0.42837116671589487,0.035497955821548174,-0.4147930163686685,1.279969481132104
P.S. X037 - MULTIPLE INTELLIGENCE SCHOOL,10X037,-73.910788,40.87984,0.08823529411764706,6.0,68.0,0.146,0.95,0.2562232715260641,-0.3887965118298369,-0.3418408025612923,-0.6419478813977256,-0.0887196173899652,-1.2690875136682085
SUCCESS ACADEMY CHARTER SCHOOL - HARLEM 4,84M386,-73.95529499999998,40.801651,0.2531645569620253,20.0,79.0,0.324,0.94,0.6522408500843382,1.933296618210546,2.3406004862313887,0.19414033542352954,-0.9582486813331739,0.5298286016227728
P.S. 049 DOROTHY BONAWIT KOLE,24Q049,-73.875034,40.719517,0.3233082706766917,43.0,133.0,0.097,0.26,0.5097371033842145,1.2312684626169423,1.1291753880669522,0.8844490682862068,-0.052489239725664855,0.3448505473907324
I.S. 364 GATEWAY,19K364,-73.881132,40.64647100000001,0.20388349514563106,21.0,103.0,0.332,0.94,0.1612386587908293,-0.06478351694048082,-1.034083715798113,-1.18218949842069,-0.269871505711467,0.36905395104839844
HARLEM CHILDREN'S ZONE PROMISE ACADEMY 1 CHARTER SCHOOL,84M284,-73.94815600000003,40.812589,0.27710843373493976,23.0,83.0,0.3720000000000001,0.97,0.4120678483544801,-0.010781351125589332,1.1291753880669522,1.0988306623429391,-0.9582486813331739,0.2418272457911961
I.S. 181 PABLO CASALS,11X181,-73.832178,40.874988,0.475095785440613,124.0,261.0,0.19,0.89,0.37659641408227046,0.3942348924861064,0.22060656444362464,0.2498795498782804,0.49096642523884065,-0.5704181024141257
P.S. 084 JOSE DE DIEGO,14K084,-73.963516,40.714822,0.2608695652173913,18.0,69.0,0.243,0.65,0.2740210607070623,-0.22679001438515886,-0.1687800742520871,-0.16173311071064644,-0.9582486813331739,-0.9705059912554727
"QUEENS SCHOOL OF INQUIRY, THE",25Q252,-73.80937,40.724191,0.2948717948717949,23.0,78.0,0.184,0.4,0.41102298396193987,0.7722500531903539,0.48019765690743244,0.7472448480898982,1.940181531810855,1.5067224088391309
J.H.S. 118 WILLIAM W. NILES,10X118,-73.89256999999998,40.848559,0.7142857142857143,270.0,378.0,0.421,0.81,0.35933078558056897,0.07022189759675028,0.26387174652092593,-0.3503889134805689,0.7808094465532435,-0.9229226399465558
P.S./M.S. 114 BELLE HARBOR,27Q114,-73.854294,40.578277,0.0,0.0,44.0,0.029,0.11,0.5071290199863661,1.285270628431835,1.172440570144253,1.0473790797693234,1.3604954891820495,1.8045534513927948
I.S. 232,09X232,-73.915529,40.849461,0.22162162162162166,41.0,185.0,0.462,0.99,0.15106675178730966,-0.9558192528862094,-0.7744926233343052,-0.384689968529647,-1.1031701919903754,-0.8131187693379538
I.S. 068 ISAAC BILDERSEE,18K068,-73.910912,40.63522,0.1103448275862069,16.0,145.0,0.196,0.95,0.1384627968012887,-0.7938127554415314,-0.7744926233343052,-0.5561952437750328,-1.1031701919903754,0.11240779597471447
M.S. 137 AMERICA'S SCHOOL OF HEROES,27Q137,-73.839652,40.67807,0.2651851851851852,179.0,675.0,0.204,0.37,0.3833253159460456,0.448237058300999,0.5667280210620351,-0.050254681801144716,0.9619613348747454,0.8595585689079194
BRONX LIGHTHOUSE CHARTER SCHOOL,84X185,-73.897385,40.823187,0.0,0.0,43.0,0.4270000000000001,0.97,0.2596872600268335,-0.4968008434596222,-0.08224971009748447,0.5414385177954353,-0.9582486813331739,-0.3157777744538133
ANDRIES HUDDE,22K240,-73.94682399999998,40.623798,0.2483221476510067,74.0,298.0,0.198,0.74,0.27512912789425725,-0.010781351125589332,-0.3418408025612923,0.5843148366067817,-0.0887196173899652,0.006595170314390033
J.H.S. 210 ELIZABETH BLACKWELL,27Q210,-73.847569,40.68480200000001,0.2686804451510334,169.0,629.0,0.213,0.67,0.30874514682856036,0.17822622922653564,0.004280654057118155,-0.11028152813702974,0.8532702018818443,0.7050509407424951
SCHOOL OF PERFORMING ARTS,12X217,-73.894038,40.822084000000004,0.07920792079207921,8.0,101.0,0.458,0.96,0.1064313586245508,-1.0908246674234416,-0.904288169566209,-0.9592326406016893,-1.1031701919903754,-0.2936562913726165
J.H.S. 227 EDWARD B. SHALLOW,20K227,-73.995529,40.621845,0.43777777777777777,197.0,450.0,0.295,0.25,0.380491836826822,-0.06478351694048082,0.6532583852166377,0.8501480132371297,0.30981453691733885,-0.0024049291448726825
JONAS BRONCK ACADEMY,10X228,-73.891283,40.861305,0.7191011235955056,64.0,89.0,0.405,0.91,0.4415812516523122,0.5022392241158917,0.39366729275282986,1.7248249169885963,0.4547360475745402,-1.2262199804576215
EAST NEW YORK MIDDLE SCHOOL OF EXCELLENCE,19K678,-73.879189,40.669568,0.18823529411764706,16.0,85.0,0.382,0.96,0.10836930656538377,-0.874816004163871,-0.9908185337208117,-0.6076468263486475,-1.1031701919903754,0.19040140562719046
I.S. 528 BEA FULLER RODGERS SCHOOL,06M528,-73.934697,40.850676,0.0,0.0,61.0,0.35100000000000003,0.99,0.23468554356120724,-0.7398105896266387,-0.4716363487931962,1.3818143664978246,-0.23364112804716672,-0.6026347591493402
CHANNEL VIEW SCHOOL FOR RESEARCH,27Q262,-73.823435,40.586666,0.1724137931034483,15.0,87.0,0.21600000000000005,0.78,0.2620386409803812,0.3132316437637667,-0.25531043840668965,0.592890100369052,0.05620189326723625,2.053960385041138
I.S. 238 - SUSAN B. ANTHONY ACADEMY,29Q238,-73.780173,40.712771999999994,0.2307692307692308,123.0,533.0,0.184,0.67,0.19618715382651922,-0.4697997605521765,-0.25531043840668965,-0.5218941887259547,0.6358879358960421,1.965578746456356
ICAHN CHARTER SCHOOL 4,84X496,-73.84304200000003,40.856635,1.0740740740740742,29.0,27.0,0.326,0.95,0.6481683716171609,1.3122717113392808,2.254070122076786,0.6271911554181282,0.12866264859583698,-0.6267996826704922
PAULA HEDBAVNY SCHOOL,06M278,-73.912337,40.871567,0.35294117647058826,24.0,68.0,0.267,0.8,0.43697621919492696,0.6642457215605686,0.6099932031393364,0.7129437930408211,-0.9582486813331739,-1.2109758574259573
J.H.S. 201 THE DYKER HEIGHTS,20K201,-74.01331,40.618745,0.6814516129032258,338.0,496.0,0.211,0.14,0.6080802420438423,1.6632857891360826,1.6050923909172663,1.3217875201619407,0.49096642523884065,0.16206598495332267
PARKSIDE PREPARATORY ACADEMY,17K002,-73.951462,40.656389000000004,0.4058823529411765,69.0,170.0,0.248,0.93,0.27037383869039916,-0.14578676566282042,-0.42837116671589487,0.10410006591970249,0.23735378158873804,-0.7343382924772743
THE HIGHBRIDGE GREEN SCHOOL,09X361,-73.928084,40.838201,0.14516129032258066,18.0,124.0,0.451,0.98,0.1846290007550241,-0.6588073409043003,-0.8610229874889078,0.4042342975991276,-0.052489239725664855,-0.46471062167802685
M.S. 053 BRIAN PICCOLO,27Q053,-73.749868,40.603951,0.12403100775193797,16.0,129.0,0.26,0.97,0.014383186873000386,-1.009821418701102,-1.1206140799527156,-1.036410014462112,-1.1031701919903754,2.940643141310611
ACADEMY FOR YOUNG WRITERS,19K404,-73.874138,40.6573,0.1111111111111111,7.0,63.0,0.34,0.97,0.11265475676566727,-0.9558192528862094,-0.8610229874889078,-0.5218941887259547,-1.1031701919903754,0.3691613055159519
PROFESSIONAL PERFORMING ARTS HIGH SCHOOL,02M408,-73.98866899999999,40.761328999999996,0.3,9.0,30.0,0.179,0.43,0.8058141051080041,2.5003193592669186,2.6001915786951963,1.3475133114487485,2.012642287139456,-0.5037463790586151
HARLEM VILLAGE ACADEMY LEADERSHIP CHARTER SCHOOL,84M335,-73.933952,40.799315,0.1694915254237288,10.0,59.0,0.417,0.98,0.27996589849009607,-0.41579759473728384,0.26387174652092593,0.34420745126324165,-0.9582486813331739,0.4005809969745146
M.S. M247 DUAL LANGUAGE MIDDLE SCHOOL,03M247,-73.9681,40.789382,0.1643835616438356,12.0,73.0,0.3,0.99,0.35328040941358807,-0.010781351125589332,0.17734138236632335,0.592890100369052,2.1575637977966573,0.2568970893873879
SCHOLARS' ACADEMY,27Q323,-73.82517,40.58445,0.3939393939393939,104.0,264.0,0.139,0.37,0.8219511979866274,3.202347514860523,2.7299871249271,1.6047712243168262,2.5198675744396613,2.0655414166077493
P.S. 043,27Q043,-73.76137800000002,40.594019,0.08235294117647059,7.0,85.0,0.198,0.91,0.05813361121554367,-0.7398105896266387,-0.8177578054116065,-1.6109526865341535,-0.9582486813331739,2.8683815773386296
THURGOOD MARSHALL ACADEMY FOR LEARNING AND SOCIAL CHANGE,05M670,-73.944304,40.815297,0.17543859649122806,10.0,57.0,0.363,0.97,0.2145884478147401,-0.11878568275537349,-0.904288169566209,1.1502822449165548,-0.30610188337576744,0.14998736055367692
P.S. 126 JACOB AUGUST RIIS,02M126,-73.997001,40.710448,0.6,66.0,110.0,0.328,0.32,0.5964187829799512,1.123264130987157,1.3887664805307596,1.0559543435315926,1.9039511541465548,-1.2802472124897386
SUCCESS ACADEMY CHARTER SCHOOL - HARLEM 2,84M384,-73.935335,40.805719,0.5285714285714286,37.0,70.0,0.38,0.97,0.6679003484858144,1.7712901207658678,2.5569263966178952,0.19414033542352954,-0.9582486813331739,0.27136463061049476
ONE WORLD MIDDLE SCHOOL AT EDENWALD,11X529,-73.840576,40.886043,0.3153153153153153,35.0,111.0,0.318,0.93,0.23785068666801285,-0.4697997605521765,-0.25531043840668965,-0.25606101209560767,-1.1031701919903754,-0.7065088350079212
BROOKLYN LAB?CHARTER SCHOOL,84K803,-73.986971,40.698516,0.29850746268656714,40.0,134.0,0.337,0.89,0.3173529632245086,0.3132316437637667,-0.25531043840668965,0.19414033542352954,-1.1031701919903754,-1.3357276378632206
SOUNDVIEW ACADEMY FOR CULTURE AND SCHOLARSHIP,08X448,-73.860062,40.823319,0.15447154471544716,19.0,123.0,0.408,0.96,0.22666403057402973,-0.550803009274515,-0.42837116671589487,-0.3160878584314927,0.5996575582317417,-0.2113034103555629
M.S. 260 CLINTON SCHOOL WRITERS & ARTISTS,02M260,-73.992352,40.736114,0.3829787234042553,36.0,94.0,0.108,0.16,0.7421227200435487,2.311311778914795,2.0810093937675807,1.7076743894640576,0.817039824217544,-1.0501414328968286
I.S. 250 THE ROBERT F. KENNEDY COMMUNITY MIDDLE SCHOOL,25Q250,-73.80937,40.724191,0.3059701492537313,41.0,134.0,0.234,0.53,0.2234246777557848,-0.3077932631074985,-0.08224971009748447,-0.09313100061249116,-0.7408664153473717,1.5067224088391309
MOTT HALL V,12X242,-73.877464,40.831694,0.17525773195876287,17.0,97.0,0.431,0.94,0.19624661889743075,-0.41579759473728384,-0.8610229874889078,-0.2732115396201462,0.2735841592530384,-0.49720035863005946
THE ANGELO PATRI MIDDLE SCHOOL,10X391,-73.897036,40.854655,0.09392265193370164,17.0,181.0,0.458,0.97,0.13143619977833715,-1.1448268332383345,-1.034083715798113,0.14697638473104893,-0.7408664153473717,-1.0573582382447138
RIVERDALE AVENUE MIDDLE SCHOOL,23K668,-73.913616,40.65997,0.18181818181818185,6.0,33.0,0.339,0.98,0.1293668230285226,-0.9018170870713167,-0.731227441257004,-1.4394474112887687,-1.1031701919903754,-0.2997849215488634
ALBERT SHANKER SCHOOL FOR VISUAL AND PERFORMING ARTS,30Q126,-73.929913,40.766101,0.32065217391304346,59.0,184.0,0.263,0.64,0.30127500268501906,-0.14578676566282042,0.13407620028902206,0.2498795498782804,-0.052489239725664855,0.26786857915122475
J.H.S. 131 ALBERT EINSTEIN,08X131,-73.860062,40.823319,0.14864864864864866,22.0,148.0,0.397,0.96,0.14260762597321788,-0.7398105896266387,-0.7744926233343052,-0.9849584318884963,-1.1031701919903754,-0.2113034103555629
MIDDLE SCHOOL OF MARKETING AND LEGAL STUDIES,18K598,-73.928682,40.658685,0.2833333333333333,17.0,60.0,0.248,0.96,0.21527634397097634,-0.41579759473728384,-0.6879622591797027,-0.08455573685022187,0.16489302626013735,-0.5049453297537444
J.H.S. 125 HENRY HUDSON,08X125,-73.856783,40.829414,0.2977099236641221,39.0,131.0,0.34700000000000003,0.71,0.201015086275183,-0.6858084238117472,-0.25531043840668965,-1.568076367722808,-0.3785626387043682,-0.3167287128521866
URBAN INSTITUTE OF MATHEMATICS,08X371,-73.818271,40.826997,0.34513274336283184,39.0,113.0,0.196,0.74,0.3365752839854569,0.6102435557456771,-0.1687800742520871,-0.4018404960541856,1.2518043561891483,0.15764186464800847
I.S. 281 JOSEPH B CAVALLARO,21K281,-73.99381899999999,40.594445,0.4362244897959184,171.0,392.0,0.249,0.29,0.3849300532299912,0.5562413899307844,0.5667280210620351,0.3099063962141645,-0.269871505711467,0.6334694636662395
P.S. 041 FRANCIS WHITE,23K041,-73.906873,40.660182,0.0,0.0,48.0,0.472,0.95,0.0769671920574895,-1.009821418701102,-1.0773488978754144,-2.01399008336081,-0.9582486813331739,-0.19638073711857063
J.H.S. 202 ROBERT H. GODDARD,27Q202,-73.845674,40.670886,0.26063829787234044,98.0,376.0,0.228,0.55,0.33290524546086053,0.3132316437637667,0.13407620028902206,0.738669584327629,0.05620189326723625,0.7758136884034222
"TECHNOLOGY, ARTS, AND SCIENCES STUDIO",01M301,-73.98423100000002,40.729892,0.19642857142857145,11.0,56.0,0.4,0.84,0.16021597491964493,-0.6048051750894076,-0.8177578054116065,-1.3879958287151528,-1.1031701919903754,-1.0257918000001973
INVICTUS PREPARATORY CHARTER SCHOOL,84K386,-73.87455600000001,40.670064,0.3896103896103896,30.0,77.0,0.353,0.96,0.20275376180641352,-0.5778040921819618,-0.3851059846385936,0.23272902235374182,-1.1031701919903754,0.2687612248773045
EBBETS FIELD MIDDLE SCHOOL,17K352,-73.95952199999998,40.664878,0.14285714285714285,9.0,63.0,0.227,0.94,0.15885207417079295,-1.0638235845159947,-0.6879622591797027,-0.8391789479299184,-0.3423322610400678,-0.9816186986868339
P.S. 138 BROOKLYN,17K138,-73.95139499999998,40.673945,0.24731182795698925,23.0,93.0,0.299,0.94,0.33651923352200935,-0.11878568275537349,0.17734138236632335,-0.36753944100510844,0.5634271805674413,-1.0521103011177293
BROOKLYN SECONDARY SCHOOL FOR COLLABORATIVE STUDIES,15K448,-74.00194300000003,40.679432,0.06818181818181818,6.0,88.0,0.312,0.85,0.2689256509217815,-0.06478351694048082,-0.21204525632938837,-0.9849584318884963,-1.1031701919903754,-1.1214732309681736
FREDERICK DOUGLASS ACADEMY V. MIDDLE SCHOOL,12X273,-73.888912,40.848711,0.13095238095238096,11.0,84.0,0.428,0.97,0.11418002098594682,-0.712809506719193,-1.034083715798113,-2.228371677417542,-1.1031701919903754,-0.9263783952385924
JOHN W. LAVELLE PREPARATORY CHARTER SCHOOL,84R067,-74.179723,40.605428,0.14678899082568808,16.0,109.0,0.253,0.78,0.1794861696940751,-0.36179542892239114,-0.42837116671589487,0.31848165997643474,-0.1974107503828663,2.3867022818378416
P.S. 140 NATHAN STRAUS,01M140,-73.983283,40.71912800000001,0.10714285714285714,6.0,56.0,0.397,0.9,0.12867111023446676,-0.8208138383489784,-0.9908185337208117,-1.4994742576246536,-0.9582486813331739,-1.079312920322912
I.S. 339,09X339,-73.90454,40.840589,0.15083798882681565,27.0,179.0,0.466,0.98,0.10519858591875428,-1.2528311648681199,-0.9475533516435104,-0.7019747277336107,-1.0307094366617746,-0.7008890004456539
TEACHERS PREPARATORY HIGH SCHOOL,23K697,-73.912061,40.66553,0.0,0.0,20.0,0.389,0.97,0.18170799637830842,-0.19978893147771312,-0.8610229874889078,-2.01399008336081,0.49096642523884065,-0.3375658782887649
PAVE ACADEMY CHARTER SCHOOL,84K651,-74.003636,40.675877,0.8913043478260869,41.0,46.0,0.447,0.94,0.37980833241843415,0.12422406341164297,0.48019765690743244,0.6443416829426668,-0.9582486813331739,-1.0533912636837106
SPECIAL MUSIC SCHOOL,03M859,-73.982997,40.775221,0.7142857142857143,10.0,14.0,0.163,0.28,0.8244074276317377,3.1213442661381836,2.7299871249271,1.3818143664978246,-0.23364112804716672,-0.16000883100107538
P.S. 211,12X211,-73.890063,40.84385,0.08433734939759037,7.0,83.0,0.496,0.98,0.17746058449714922,-0.7938127554415314,-0.6879622591797027,-0.3075125946692224,-0.7770967930116722,-0.8116752300808665
URBAN ASSEMBLY INSTITUTE OF MATH AND SCIENCE FOR YOUNG WOMEN,13K527,-73.98830699999998,40.694639,0.3548387096774194,22.0,62.0,0.308,0.86,0.21227223753121938,-0.41579759473728384,-0.6879622591797027,-0.384689968529647,-1.1031701919903754,-1.379777665464833
