school_name,dbn,num_testtakers,num_offered,pct_8th_graders_offered,pct_black_hispanic,SED Code,District,Latitude,Longitude,Address (Full),City,Zip,Grades,Grade Low,Grade High,Community School?,Economic Need Index,School Income Estimate,Percent ELL,Percent Asian,Percent Black,Percent Hispanic,Percent Black / Hispanic,Percent White,Student Attendance Rate,Percent of Students Chronically Absent,Rigorous Instruction %,Rigorous Instruction Rating,Collaborative Teachers %,Collaborative Teachers Rating,Supportive Environment %,Supportive Environment Rating,Effective School Leadership %,Effective School Leadership Rating,Strong Family-Community Ties %,Strong Family-Community Ties Rating,Trust %,Trust Rating,Student Achievement Rating,Average ELA Proficiency,Average Math Proficiency
THE CHRISTA MCAULIFFE SCHOOL\I.S. 187,20K187,251,205,75%,8%,332000010187.0,20.0,40.627846999999996,-74.004003,"1171 65TH ST BROOKLYN, NY 11219",BROOKLYN,11219.0,"06,07,08",06,08,No,0.48,,2%,69%,1%,6%,7%,24%,98%,2%,92%,Exceeding Target,91%,Exceeding Target,92%,Exceeding Target,90%,Exceeding Target,76%,Approaching Target,93%,Exceeding Target,Exceeding Target,3.83,4.19
MARK TWAIN I.S. 239 FOR THE GIFTED & TALENTED,21K239,336,196,46%,13%,332100010239.0,21.0,40.57866,-73.992391,"2401 NEPTUNE AVE BROOKLYN, NY 11224",BROOKLYN,11224.0,"06,07,08",06,08,No,0.311,,1%,28%,7%,5%,12%,54%,96%,7%,88%,Meeting Target,89%,Exceeding Target,87%,Meeting Target,86%,Meeting Target,73%,Approaching Target,91%,Meeting Target,Meeting Target,3.53,3.71
J.H.S. 054 BOOKER T. WASHINGTON,03M054,257,150,53%,23%,310300010054.0,3.0,40.800512,-73.962802,"103 W 107TH ST NEW YORK, NY 10025",NEW YORK,10025.0,"06,07,08",06,08,No,0.221,,2%,9%,8%,12%,20%,64%,96%,5%,85%,,83%,,87%,,80%,Approaching Target,84%,Meeting Target,90%,Meeting Target,Exceeding Target,3.46,3.7
M.S. 51 WILLIAM ALEXANDER,15K051,280,122,33%,28%,331500010051.0,15.0,40.67218,-73.984625,"350 5TH AVE BROOKLYN, NY 11215",BROOKLYN,11215.0,"06,07,08",06,08,No,0.248,,2%,12%,10%,19%,29%,57%,97%,3%,87%,Exceeding Target,88%,Meeting Target,89%,Exceeding Target,85%,Meeting Target,74%,Approaching Target,90%,Meeting Target,Exceeding Target,3.5,3.49
NEW YORK CITY LAB MIDDLE SCHOOL FOR COLLABORATIVE STUDIES,02M312,163,113,62%,8%,310200010312.0,2.0,40.742571000000005,-74.002371,"333 W 17TH ST NEW YORK, NY 10011",NEW YORK,10011.0,"06,07,08",06,08,No,0.308,,1%,47%,2%,7%,10%,34%,98%,2%,88%,Meeting Target,91%,Exceeding Target,90%,Exceeding Target,83%,Meeting Target,85%,Meeting Target,92%,Meeting Target,Exceeding Target,3.62,3.94
I.S. 98 BAY ACADEMY,21K098,372,104,21%,12%,332100010098.0,21.0,40.583765,-73.95401600000001,"1401 EMMONS AVE BROOKLYN, NY 11235",BROOKLYN,11235.0,"06,07,08",06,08,No,0.445,,1%,27%,3%,10%,13%,59%,96%,8%,94%,Exceeding Target,96%,Exceeding Target,89%,Meeting Target,91%,Exceeding Target,70%,Approaching Target,94%,Meeting Target,Exceeding Target,3.47,3.8
J.H.S. 201 THE DYKER HEIGHTS,20K201,338,101,19%,16%,332000010201.0,20.0,40.618745000000004,-74.01331,"8010 12TH AVE BROOKLYN, NY 11228",BROOKLYN,11228.0,"06,07,08",06,08,No,0.5579999999999999,,8%,46%,0%,14%,14%,39%,97%,7%,92%,Exceeding Target,94%,Exceeding Target,88%,Exceeding Target,87%,Meeting Target,70%,Approaching Target,94%,Exceeding Target,Exceeding Target,3.13,3.36
J.H.S. 074 NATHANIEL HAWTHORNE,26Q074,233,95,23%,15%,342600010074.0,26.0,40.758542999999996,-73.77396999999999,"61-15 OCEANIA ST BAYSIDE, NY 11361",BAYSIDE,11361.0,"06,07,08",06,08,No,0.258,,4%,66%,5%,10%,15%,18%,98%,4%,85%,Meeting Target,87%,Exceeding Target,85%,Exceeding Target,87%,Meeting Target,73%,Approaching Target,88%,Meeting Target,Exceeding Target,3.29,3.58
J.H.S. 216 GEORGE J. RYAN,26Q216,304,95,19%,18%,342600010216.0,26.0,40.73726,-73.79446300000001,"64-20 175TH ST FLUSHING, NY 11365",FLUSHING,11365.0,"06,07,08",06,08,No,0.39899999999999997,,8%,68%,6%,11%,17%,14%,97%,5%,88%,Exceeding Target,85%,Exceeding Target,85%,Exceeding Target,81%,Meeting Target,75%,Approaching Target,86%,Approaching Target,Exceeding Target,3.1,3.41
J.H.S. 185 EDWARD BLEEKER,25Q185,250,93,17%,32%,342500010185.0,25.0,40.775121999999996,-73.8185,"147-26 25TH DR FLUSHING, NY 11354",FLUSHING,11354.0,"06,07,08",06,08,No,0.44299999999999995,,10%,55%,4%,29%,32%,12%,96%,10%,89%,Meeting Target,92%,Exceeding Target,87%,Meeting Target,87%,Meeting Target,71%,Approaching Target,93%,Meeting Target,Meeting Target,2.92,3.29
"NEW EXPLORATIONS INTO SCIENCE, TECHNOLOGY AND MATH SCHOOL",01M539,126,91,67%,19%,310100011539.0,1.0,40.7195,-73.979239,"111 COLUMBIA ST NEW YORK, NY 10002",NEW YORK,10002.0,"0K,01,02,03,04,05,06,07,08,09,10,11,12",0K,12,No,0.257,"$76,833.96 ",0%,33%,9%,11%,20%,42%,97%,3%,81%,Exceeding Target,73%,Approaching Target,85%,Meeting Target,55%,Not Meeting Target,81%,Approaching Target,74%,Not Meeting Target,Exceeding Target,3.83,4.03
J.H.S. 259 WILLIAM MCKINLEY,20K259,309,86,15%,21%,332000010259.0,20.0,40.626227,-74.014758,"7301 FT HAMILTON PKWY BROOKLYN, NY 11228",BROOKLYN,11228.0,"06,07,08",06,08,No,0.622,,11%,45%,1%,22%,23%,32%,96%,12%,95%,Exceeding Target,96%,Exceeding Target,89%,Meeting Target,91%,Exceeding Target,69%,Approaching Target,94%,Exceeding Target,Meeting Target,2.92,3.28
M.S. 158 MARIE CURIE,26Q158,236,84,22%,20%,342600010158.0,26.0,40.756375,-73.77232,"46-35 OCEANIA ST BAYSIDE, NY 11361",BAYSIDE,11361.0,"06,07,08",06,08,No,0.27399999999999997,,6%,61%,5%,14%,19%,20%,97%,5%,88%,Exceeding Target,91%,Meeting Target,83%,Meeting Target,85%,Meeting Target,72%,Approaching Target,90%,Meeting Target,Meeting Target,3.15,3.46
J.H.S. 067 LOUIS PASTEUR,26Q067,211,82,27%,15%,342600010067.0,26.0,40.762437,-73.734426,"51-60 MARATHON PKWY LITTLE NECK, NY 11362",LITTLE NECK,11362.0,"06,07,08",06,08,No,0.209,,2%,62%,3%,12%,14%,23%,98%,4%,87%,Exceeding Target,87%,Exceeding Target,83%,Meeting Target,73%,Approaching Target,73%,Approaching Target,83%,Approaching Target,Meeting Target,3.27,3.66
J.H.S. 234 ARTHUR W. CUNNINGHAM,22K234,370,79,12%,30%,332200010234.0,22.0,40.604437,-73.95517099999999,"1875 E 17TH ST BROOKLYN, NY 11229",BROOKLYN,11229.0,"06,07,08",06,08,No,0.46299999999999997,,9%,25%,17%,11%,28%,45%,96%,10%,88%,Meeting Target,89%,Exceeding Target,85%,Meeting Target,85%,Meeting Target,73%,Approaching Target,91%,Meeting Target,Meeting Target,3.09,3.32
J.H.S. 167 ROBERT F. WAGNER,02M167,258,77,18%,22%,310200010167.0,2.0,40.771827,-73.95794000000001,"220 E 76TH ST NEW YORK, NY 10021",NEW YORK,10021.0,"06,07,08",06,08,No,0.36,,4%,28%,8%,19%,27%,42%,96%,9%,85%,Exceeding Target,89%,Meeting Target,87%,Meeting Target,84%,Meeting Target,76%,Approaching Target,92%,Meeting Target,Exceeding Target,3.08,3.34
EAST SIDE MIDDLE SCHOOL,02M114,124,75,49%,12%,310200010114.0,2.0,40.780646000000004,-73.947544,"331 E 91ST ST NEW YORK, NY 10028",NEW YORK,10028.0,"06,07,08",06,08,No,0.10400000000000001,,0%,15%,3%,9%,12%,66%,98%,2%,92%,Exceeding Target,96%,Exceeding Target,92%,Exceeding Target,94%,Exceeding Target,82%,Meeting Target,96%,Exceeding Target,Exceeding Target,3.66,3.94
I.S. 73 - THE FRANK SANSIVIERI INTERMEDIATE SCHOOL,24Q073,394,73,10%,59%,342400010073.0,24.0,40.728596,-73.89329599999999,"70-02 54TH AVE MASPETH, NY 11378",MASPETH,11378.0,"06,07,08",06,08,No,0.573,,15%,27%,1%,59%,60%,13%,95%,12%,85%,Exceeding Target,86%,Exceeding Target,79%,Approaching Target,79%,Meeting Target,71%,Approaching Target,91%,Meeting Target,Exceeding Target,2.7,2.94
M.S. 255 SALK SCHOOL OF SCIENCE,02M255,108,70,55%,13%,310200010255.0,2.0,40.735118,-73.981697,"319 E 19TH ST NEW YORK, NY 10003",NEW YORK,10003.0,"06,07,08",06,08,No,0.131,,0%,19%,3%,9%,13%,63%,97%,5%,93%,Meeting Target,97%,Exceeding Target,95%,Exceeding Target,96%,Exceeding Target,88%,Exceeding Target,98%,Exceeding Target,Exceeding Target,3.75,3.63
BACCALAUREATE SCHOOL FOR GLOBAL EDUCATION,30Q580,94,62,52%,21%,343000011580.0,30.0,40.755047999999995,-73.926963,"34-12 36TH AVE LONG ISLAND CITY, NY 11106",LONG ISLAND CITY,11106.0,"07,08,09,10,11,12",07,12,No,0.276,,0%,49%,2%,15%,17%,31%,98%,1%,88%,Meeting Target,81%,Approaching Target,90%,Exceeding Target,74%,Approaching Target,70%,Not Meeting Target,89%,Meeting Target,Exceeding Target,3.91,4.07
I.S. 119 THE GLENDALE,24Q119,104,59,27%,32%,342400010119.0,24.0,40.705197999999996,-73.875033,"74-01 78TH AVE GLENDALE, NY 11385",GLENDALE,11385.0,"06,07,08",06,08,No,0.436,"$57,397.18 ",4%,25%,1%,30%,32%,42%,95%,13%,89%,Exceeding Target,87%,Exceeding Target,84%,Meeting Target,83%,Meeting Target,75%,Not Meeting Target,87%,Meeting Target,Exceeding Target,3.13,3.38
THE ANDERSON SCHOOL,03M334,75,58,76%,12%,310300010334.0,3.0,40.781081,-73.978085,"100 W 77TH ST NEW YORK, NY 10024",NEW YORK,10024.0,"0K,01,02,03,04,05,06,07,08",0K,08,No,0.134,"$89,026.73 ",0%,28%,4%,9%,13%,53%,98%,1%,90%,Exceeding Target,90%,Exceeding Target,92%,Exceeding Target,87%,Meeting Target,93%,Exceeding Target,92%,Meeting Target,Exceeding Target,3.93,4.15
J.H.S. 194 WILLIAM CARR,25Q194,147,54,14%,33%,342500010194.0,25.0,40.78322,-73.806977,"154-60 17TH AVE WHITESTONE, NY 11357",WHITESTONE,11357.0,"06,07,08",06,08,No,0.34,,7%,35%,2%,29%,31%,33%,95%,12%,86%,Meeting Target,84%,Exceeding Target,82%,Meeting Target,77%,Approaching Target,75%,Approaching Target,87%,Meeting Target,Approaching Target,2.87,3.07
J.H.S. 190 RUSSELL SAGE,28Q190,172,53,15%,35%,342800010190.0,28.0,40.723014,-73.851845,"68-17 AUSTIN ST FOREST HILLS, NY 11375",FOREST HILLS,11375.0,"06,07,08",06,08,No,0.37200000000000005,,8%,33%,7%,28%,35%,29%,95%,12%,86%,Meeting Target,81%,Meeting Target,80%,Meeting Target,72%,Approaching Target,70%,Not Meeting Target,82%,Approaching Target,Meeting Target,2.85,3.03
I.S. 237,25Q237,194,53,12%,23%,342500010237.0,25.0,40.749539,-73.821454,"46-21 COLDEN ST FLUSHING, NY 11355",FLUSHING,11355.0,"06,07,08",06,08,No,0.562,,19%,73%,7%,17%,25%,2%,96%,13%,78%,Meeting Target,78%,Approaching Target,78%,Approaching Target,71%,Approaching Target,66%,Not Meeting Target,83%,Approaching Target,Meeting Target,2.72,3.22
J.H.S. 104 SIMON BARUCH,02M104,260,53,14%,26%,310200010104.0,2.0,40.735735,-73.980611,"330 E 21ST ST NEW YORK, NY 10010",NEW YORK,10010.0,"06,07,08",06,08,No,0.522,,5%,40%,8%,21%,29%,28%,96%,11%,87%,Meeting Target,89%,Exceeding Target,85%,Meeting Target,84%,Meeting Target,70%,Approaching Target,92%,Meeting Target,Exceeding Target,3.05,3.25
J.H.S. 157 STEPHEN A. HALSEY,28Q157,249,52,10%,33%,342800010157.0,28.0,40.732287,-73.853054,"63-55 102ND ST REGO PARK, NY 11374",REGO PARK,11374.0,"06,07,08,09",06,09,No,0.408,,9%,24%,10%,23%,33%,41%,95%,12%,91%,Exceeding Target,89%,Exceeding Target,84%,Meeting Target,84%,Meeting Target,72%,Approaching Target,90%,Meeting Target,Exceeding Target,2.95,3.19
THE MATH & SCIENCE EXPLORATORY SCHOOL,15K447,134,51,29%,31%,331500010447.0,15.0,40.683834999999995,-73.980355,"345 DEAN ST BROOKLYN, NY 11217",BROOKLYN,11217.0,"06,07,08",06,08,No,0.244,,0%,8%,17%,20%,37%,52%,96%,7%,87%,Exceeding Target,92%,Exceeding Target,87%,Meeting Target,91%,Exceeding Target,88%,Exceeding Target,93%,Meeting Target,Exceeding Target,3.42,3.6
P.S. 122 MAMIE FAY,30Q122,74,49,65%,25%,343000010122.0,30.0,40.780311,-73.91658000000001,"21-21 DITMARS BLVD ASTORIA, NY 11105",ASTORIA,11105.0,"PK,0K,01,02,03,04,05,06,07,08",PK,08,No,0.42100000000000004,"$54,818.42 ",5%,30%,6%,21%,27%,39%,96%,8%,90%,Exceeding Target,86%,Exceeding Target,91%,Meeting Target,71%,Approaching Target,78%,Approaching Target,92%,Meeting Target,Exceeding Target,3.38,3.52
BROOKLYN SCHOOL OF INQUIRY,20K686,80,46,54%,10%,332000010686.0,20.0,40.607008,-73.986852,"50 AVE P BROOKLYN, NY 11218",BROOKLYN,11218.0,"0K,01,02,03,04,05,06,07,08",0K,08,No,0.209,"$65,859.29 ",6%,18%,5%,5%,10%,71%,96%,5%,91%,Exceeding Target,97%,Exceeding Target,94%,Exceeding Target,95%,Exceeding Target,90%,Exceeding Target,95%,Exceeding Target,Meeting Target,3.47,3.68
I.S. 075 FRANK D. PAULO,31R075,153,46,11%,14%,353100010075.0,31.0,40.544369,-74.197201,"455 HUGUENOT AVE STATEN ISLAND, NY 10312",STATEN ISLAND,10312.0,"06,07,08",06,08,No,0.207,,1%,9%,1%,10%,11%,79%,95%,12%,92%,Exceeding Target,94%,Exceeding Target,85%,Meeting Target,90%,Exceeding Target,74%,Approaching Target,92%,Meeting Target,Exceeding Target,3.05,3.16
I.S. 5 - THE WALTER CROWLEY INTERMEDIATE SCHOOL,24Q005,264,40,6%,53%,342400010005.0,24.0,40.737757,-73.887429,"50-40 JACOBUS ST ELMHURST, NY 11373",ELMHURST,11373.0,"06,07,08",06,08,No,0.643,,16%,44%,2%,52%,54%,2%,96%,10%,82%,Approaching Target,82%,Meeting Target,83%,Meeting Target,76%,Approaching Target,68%,Not Meeting Target,90%,Meeting Target,Exceeding Target,2.84,2.99
THE SEEALL ACADEMY,20K180,113,38,22%,28%,332000010180.0,20.0,40.62659,-73.989464,"5601 16TH AVE BROOKLYN, NY 11204",BROOKLYN,11204.0,"PK,0K,01,02,03,04,05,06,07,08",PK,08,No,0.706,"$39,390.34 ",23%,43%,1%,28%,29%,27%,97%,9%,93%,Meeting Target,94%,Exceeding Target,86%,Meeting Target,89%,Exceeding Target,80%,Approaching Target,93%,Exceeding Target,Meeting Target,2.74,3.03
I.S. 125 THOM J. MCCANN WOODSIDE,24Q125,272,34,6%,56%,342400010125.0,24.0,40.741091,-73.918649,"46-02 47TH AVE WOODSIDE, NY 11377",WOODSIDE,11377.0,"06,07,08",06,08,No,0.615,,15%,40%,1%,53%,54%,5%,96%,10%,90%,Exceeding Target,91%,Exceeding Target,88%,Exceeding Target,84%,Meeting Target,73%,Approaching Target,93%,Meeting Target,Exceeding Target,2.65,2.96
IRWIN ALTMAN MIDDLE SCHOOL 172,26Q172,189,33,10%,24%,342600010172.0,26.0,40.742067,-73.713022,"81-14 257TH ST FLORAL PARK, NY 11004",FLORAL PARK,11004.0,"06,07,08",06,08,No,0.271,,4%,62%,10%,13%,23%,13%,97%,6%,86%,Meeting Target,79%,Approaching Target,82%,Meeting Target,68%,Not Meeting Target,73%,Approaching Target,82%,Approaching Target,Meeting Target,2.96,3.08
I.S. 281 JOSEPH B CAVALLARO,21K281,171,30,7%,31%,332100010281.0,21.0,40.594445,-73.99381899999999,"8787 24TH AVE BROOKLYN, NY 11214",BROOKLYN,11214.0,"06,07,08",06,08,No,0.631,,16%,38%,7%,22%,29%,31%,94%,19%,81%,Approaching Target,78%,Meeting Target,81%,Approaching Target,65%,Not Meeting Target,69%,Not Meeting Target,81%,Approaching Target,Exceeding Target,2.72,2.97
I.S. 025 ADRIEN BLOCK,25Q025,147,29,9%,26%,342500010025.0,25.0,40.765017,-73.789689,"34-65 192ND ST FLUSHING, NY 11358",FLUSHING,11358.0,"06,07,08",06,08,No,0.336,,10%,50%,1%,24%,25%,24%,97%,6%,87%,Approaching Target,85%,Meeting Target,85%,Meeting Target,75%,Approaching Target,69%,Not Meeting Target,87%,Meeting Target,Meeting Target,2.95,3.23
J.H.S. 118 WILLIAM W. NILES,10X118,270,29,7%,82%,321000010118.0,10.0,40.848559,-73.89256999999999,"577 E 179TH ST BRONX, NY 10457",BRONX,10457.0,"06,07,08",06,08,No,0.843,,11%,15%,21%,60%,81%,3%,92%,26%,84%,Approaching Target,76%,Approaching Target,83%,Approaching Target,69%,Not Meeting Target,69%,Not Meeting Target,88%,Meeting Target,Meeting Target,2.54,2.59
TAG YOUNG SCHOLARS,04M012,54,27,48%,36%,310400010012.0,4.0,40.792590000000004,-73.94211899999999,"240 E 109TH ST NEW YORK, NY 10029",NEW YORK,10029.0,"0K,01,02,03,04,05,06,07,08",0K,08,No,0.435,"$48,431.58 ",0%,34%,25%,19%,44%,15%,97%,5%,92%,Exceeding Target,92%,Exceeding Target,91%,Exceeding Target,86%,Meeting Target,87%,Meeting Target,90%,Meeting Target,Exceeding Target,3.64,3.89
SCHOLARS' ACADEMY,27Q323,104,27,12%,37%,342700010323.0,27.0,40.58445,-73.82517,"320 BEACH 104TH ST ROCKAWAY PARK, NY 11694",ROCKAWAY PARK,11694.0,"06,07,08,09,10,11,12",06,12,No,0.40299999999999997,,0%,21%,19%,18%,37%,41%,97%,5%,93%,Exceeding Target,96%,Exceeding Target,92%,Exceeding Target,93%,Exceeding Target,79%,Meeting Target,95%,Exceeding Target,Exceeding Target,3.7,3.85
J.H.S. 220 JOHN J. PERSHING,20K220,181,27,5%,43%,332000010220.0,20.0,40.640772999999996,-74.00080799999999,"4812 9TH AVE BROOKLYN, NY 11220",BROOKLYN,11220.0,"06,07,08",06,08,No,0.828,,33%,49%,1%,44%,45%,6%,95%,12%,83%,Exceeding Target,80%,Approaching Target,82%,Meeting Target,77%,Approaching Target,67%,Not Meeting Target,87%,Approaching Target,Meeting Target,2.42,2.81
I.S. 227 LOUIS ARMSTRONG,30Q227,206,27,6%,59%,343000011227.0,30.0,40.757692,-73.87417099999999,"32-02 JUNCTION BLVD EAST ELMHURST, NY 11369",EAST ELMHURST,11369.0,"05,06,07,08",05,08,No,0.5539999999999999,,5%,14%,10%,48%,59%,27%,97%,6%,94%,Exceeding Target,96%,Exceeding Target,90%,Exceeding Target,93%,Exceeding Target,75%,Approaching Target,95%,Exceeding Target,Exceeding Target,2.91,3.2
I.S. 318 EUGENIO MARIA DE HOSTOS,14K318,222,27,6%,78%,331400010318.0,14.0,40.703215,-73.948503,"101 WALTON ST BROOKLYN, NY 11206",BROOKLYN,11206.0,"06,07,08",06,08,No,0.6779999999999999,,5%,7%,18%,62%,80%,13%,95%,14%,87%,Meeting Target,91%,Meeting Target,87%,Meeting Target,85%,Meeting Target,78%,Meeting Target,92%,Meeting Target,Meeting Target,2.59,2.63
THE 30TH AVENUE SCHOOL (G&T CITYWIDE),30Q300,39,26,63%,15%,343000010300.0,30.0,40.768259,-73.922754,"28-37 29TH ST ASTORIA, NY 11102",ASTORIA,11102.0,"0K,01,02,03,04,05,06,07,08",0K,08,No,0.259,"$66,603.51 ",1%,45%,6%,9%,14%,31%,96%,4%,94%,,97%,,95%,,95%,,93%,,99%,,,3.73,3.99
I.S. 072 ROCCO LAURIE,31R072,139,26,6%,31%,353100010072.0,31.0,40.59247,-74.158532,"33 FERNDALE AVE STATEN ISLAND, NY 10314",STATEN ISLAND,10314.0,"06,07,08",06,08,No,0.366,,4%,20%,5%,24%,29%,50%,94%,17%,89%,Meeting Target,93%,Exceeding Target,86%,Meeting Target,87%,Meeting Target,69%,Not Meeting Target,93%,Meeting Target,Exceeding Target,2.83,2.79
I.S. 230,30Q230,157,26,6%,60%,343000010230.0,30.0,40.75264,-73.892841,"73-10 34TH AVE JACKSON HEIGHTS, NY 11372",JACKSON HEIGHTS,11372.0,"06,07,08",06,08,No,0.601,,11%,37%,1%,56%,57%,5%,96%,8%,90%,Exceeding Target,91%,Exceeding Target,87%,Exceeding Target,85%,Meeting Target,74%,Approaching Target,92%,Meeting Target,Exceeding Target,2.79,3.12
I.S. 141 THE STEINWAY,30Q141,170,26,7%,37%,343000010141.0,30.0,40.775892999999996,-73.90456400000001,"37-11 21ST AVE LONG ISLAND CITY, NY 11105",LONG ISLAND CITY,11105.0,"06,07,08",06,08,No,0.513,,6%,23%,4%,38%,41%,34%,95%,12%,89%,Meeting Target,89%,Exceeding Target,85%,Meeting Target,78%,Approaching Target,73%,Approaching Target,87%,Approaching Target,Meeting Target,2.87,3.03
J.H.S. 227 EDWARD B. SHALLOW,20K227,197,25,5%,27%,332000010227.0,20.0,40.621845,-73.995529,"6500 16TH AVE BROOKLYN, NY 11204",BROOKLYN,11204.0,"06,07,08",06,08,No,0.731,,26%,60%,0%,24%,25%,16%,96%,11%,85%,Approaching Target,87%,Meeting Target,85%,Meeting Target,78%,Approaching Target,68%,Not Meeting Target,91%,Meeting Target,Meeting Target,2.49,2.83
J.H.S. 217 ROBERT A. VAN WYCK,28Q217,175,24,4%,56%,342800010217.0,28.0,40.710509,-73.811875,"85-05 144TH ST JAMAICA, NY 11435",JAMAICA,11435.0,"06,07,08",06,08,No,0.628,,18%,37%,13%,41%,55%,6%,93%,19%,91%,Meeting Target,95%,Meeting Target,87%,Meeting Target,90%,Exceeding Target,75%,Approaching Target,94%,Exceeding Target,Exceeding Target,2.64,2.64
COLUMBIA SECONDARY SCHOOL,05M362,42,23,24%,64%,310500011362.0,5.0,40.81064,-73.95584699999999,"425 W 123RD ST NEW YORK, NY 10027",NEW YORK,10027.0,"06,07,08,09,10,11,12",06,12,No,0.507,,0%,12%,21%,44%,65%,20%,98%,1%,87%,Exceeding Target,92%,Exceeding Target,88%,Exceeding Target,90%,Exceeding Target,84%,Exceeding Target,93%,Exceeding Target,Exceeding Target,3.47,3.73
QUEENS GATEWAY TO HEALTH SCIENCES SECONDARY SCHOOL,28Q680,61,23,28%,37%,342800011680.0,28.0,40.71855,-73.805991,"160-20 GOETHALS AVE JAMAICA, NY 11432",JAMAICA,11432.0,"07,08,09,10,11,12",07,12,No,0.41,,0%,47%,35%,11%,46%,3%,98%,1%,85%,Meeting Target,59%,Meeting Target,82%,Exceeding Target,45%,Not Meeting Target,66%,Not Meeting Target,64%,Not Meeting Target,Meeting Target,3.43,3.53
P.S. 184M SHUANG WEN,01M184,67,23,26%,17%,310100010184.0,1.0,40.711437,-73.985486,"327 CHERRY ST-2ND FL NEW YORK, NY 10002",NEW YORK,10002.0,"PK,0K,01,02,03,04,05,06,07,08",PK,08,No,0.5589999999999999,"$40,809.90 ",17%,71%,4%,12%,15%,9%,98%,2%,90%,,81%,,91%,,67%,Not Meeting Target,83%,Approaching Target,85%,Approaching Target,Exceeding Target,3.24,3.63
M.S. 137 AMERICA'S SCHOOL OF HEROES,27Q137,179,23,4%,39%,342700010137.0,27.0,40.67807,-73.839652,"109-15 98TH ST OZONE PARK, NY 11417",OZONE PARK,11417.0,"06,07,08",06,08,No,0.541,,9%,54%,5%,32%,37%,2%,93%,24%,91%,Meeting Target,88%,Approaching Target,82%,Approaching Target,82%,Meeting Target,74%,Approaching Target,90%,Meeting Target,Meeting Target,2.68,2.81
BATTERY PARK CITY SCHOOL,02M276,56,22,26%,17%,310200010276.0,2.0,40.706563,-74.017528,"55 BATTERY PL NEW YORK, NY 10011",NEW YORK,10011.0,"0K,01,02,03,04,05,06,07,08",0K,08,No,0.114,"$140,085.12 ",2%,21%,4%,11%,15%,56%,96%,8%,92%,Exceeding Target,94%,Meeting Target,88%,Meeting Target,92%,Exceeding Target,90%,Exceeding Target,93%,Meeting Target,Meeting Target,3.16,3.32
I.S. 007 ELIAS BERNSTEIN,31R007,129,22,6%,10%,353100010007.0,31.0,40.52409,-74.186183,"1270 HUGUENOT AVE STATEN ISLAND, NY 10312",STATEN ISLAND,10312.0,"06,07,08",06,08,No,0.239,,1%,4%,1%,7%,7%,88%,94%,15%,94%,Exceeding Target,93%,Exceeding Target,88%,Meeting Target,84%,Meeting Target,76%,Approaching Target,91%,Meeting Target,Meeting Target,3.1,3.22
BELL ACADEMY,25Q294,69,21,15%,36%,342500010294.0,25.0,40.782346000000004,-73.77844,"18-25 212TH ST BAYSIDE, NY 11360",BAYSIDE,11360.0,"06,07,08",06,08,No,0.255,,2%,34%,4%,27%,31%,34%,95%,9%,92%,Exceeding Target,90%,Exceeding Target,83%,Meeting Target,91%,Exceeding Target,80%,Meeting Target,91%,Meeting Target,Meeting Target,3.07,3.16
J.H.S. 210 ELIZABETH BLACKWELL,27Q210,169,21,3%,65%,342700010210.0,27.0,40.684802000000005,-73.847569,"93-11 101ST AVE OZONE PARK, NY 11416",OZONE PARK,11416.0,"06,07,08",06,08,No,0.602,,13%,28%,6%,61%,67%,3%,93%,23%,86%,Meeting Target,87%,Exceeding Target,82%,Approaching Target,76%,Approaching Target,75%,Approaching Target,89%,Meeting Target,Meeting Target,2.58,2.67
EAST-WEST SCHOOL OF INTERNATIONAL STUDIES,25Q281,70,20,19%,27%,342500011281.0,25.0,40.749539,-73.821454,"46-21 COLDEN ST FLUSHING, NY 11355",FLUSHING,11355.0,"06,07,08,09,10,11,12",06,12,No,0.5379999999999999,,7%,67%,10%,18%,28%,4%,98%,2%,89%,Meeting Target,88%,Exceeding Target,84%,Meeting Target,85%,Meeting Target,74%,Approaching Target,91%,Meeting Target,Exceeding Target,2.96,3.39
P.S. 229 DYKER,20K229,93,20,16%,13%,332000010229.0,20.0,40.610577,-74.013301,"1400 BENSON AVE BROOKLYN, NY 11228",BROOKLYN,11228.0,"0K,01,02,03,04,05,06,07,08",0K,08,No,0.385,"$70,641.62 ",9%,55%,1%,11%,13%,32%,97%,8%,90%,Exceeding Target,88%,Meeting Target,87%,Meeting Target,76%,Approaching Target,80%,Approaching Target,89%,Meeting Target,Meeting Target,3.11,3.44
J.H.S. 088 PETER ROUGET,15K088,163,20,5%,68%,331500010088.0,15.0,40.660494,-73.9883,"544 7TH AVE BROOKLYN, NY 11215",BROOKLYN,11215.0,"06,07,08",06,08,No,0.7190000000000001,,12%,18%,11%,60%,71%,10%,95%,13%,89%,Exceeding Target,87%,Exceeding Target,86%,Exceeding Target,77%,Approaching Target,78%,Meeting Target,90%,Meeting Target,Exceeding Target,2.58,2.67
ALBERT SHANKER SCHOOL FOR VISUAL AND PERFORMING ARTS,30Q126,59,19,11%,62%,343000010126.0,30.0,40.766101,-73.929913,"31-51 21ST ST LONG ISLAND CITY, NY 11106",LONG ISLAND CITY,11106.0,"06,07,08",06,08,No,0.7070000000000001,,12%,25%,15%,49%,64%,10%,94%,20%,90%,Exceeding Target,97%,Exceeding Target,91%,Meeting Target,93%,Exceeding Target,81%,Meeting Target,96%,Exceeding Target,Meeting Target,2.46,2.51
M.S. M245 THE COMPUTER SCHOOL,03M245,70,19,14%,40%,310300010245.0,3.0,40.781081,-73.978085,"100 W 77TH ST NEW YORK, NY 10024",NEW YORK,10024.0,"06,07,08",06,08,No,0.304,,3%,6%,14%,26%,40%,50%,97%,6%,90%,Exceeding Target,92%,Exceeding Target,91%,Exceeding Target,85%,Meeting Target,86%,Meeting Target,95%,Exceeding Target,Exceeding Target,3.17,3.14
NEW VOICES SCHOOL OF ACADEMIC & CREATIVE ARTS,15K443,94,19,10%,40%,331500010443.0,15.0,40.660969,-73.989018,"330 18TH ST BROOKLYN, NY 11215",BROOKLYN,11215.0,"06,07,08",06,08,No,0.381,,1%,6%,13%,35%,48%,45%,95%,10%,93%,Exceeding Target,94%,Exceeding Target,86%,Meeting Target,89%,Exceeding Target,83%,Meeting Target,93%,Meeting Target,Exceeding Target,3.1,3.11
J.H.S. 223 THE MONTAUK,20K223,142,19,6%,28%,332000010223.0,20.0,40.634787,-73.98163100000001,"4200 16TH AVE BROOKLYN, NY 11204",BROOKLYN,11204.0,"06,07,08",06,08,No,0.792,,31%,61%,4%,27%,31%,7%,96%,12%,85%,Meeting Target,88%,Exceeding Target,86%,Meeting Target,82%,Meeting Target,72%,Approaching Target,90%,Meeting Target,Exceeding Target,2.43,2.89
P.S. 126 JACOB AUGUST RIIS,02M126,66,18,16%,27%,310200010126.0,2.0,40.710448,-73.997001,"80 CATHERINE ST NEW YORK, NY 10038",NEW YORK,10038.0,"PK,0K,01,02,03,04,05,06,07,08",PK,08,No,0.728,"$38,919.61 ",17%,59%,11%,21%,32%,8%,96%,10%,91%,Exceeding Target,93%,Exceeding Target,91%,Exceeding Target,89%,Exceeding Target,82%,Approaching Target,95%,Exceeding Target,Exceeding Target,2.93,3.29
J.H.S. 202 ROBERT H. GODDARD,27Q202,98,18,5%,54%,342700010202.0,27.0,40.670885999999996,-73.845674,"138-30 LAFAYETTE ST OZONE PARK, NY 11417",OZONE PARK,11417.0,"06,07,08",06,08,No,0.593,,8%,34%,7%,48%,55%,8%,95%,14%,92%,Meeting Target,94%,Exceeding Target,85%,Meeting Target,89%,Meeting Target,73%,Approaching Target,92%,Meeting Target,Meeting Target,2.63,2.63
M.S. 260 CLINTON SCHOOL WRITERS & ARTISTS,02M260,36,17,18%,16%,310200010260.0,2.0,40.736114,-73.992352,"10 E 15TH ST NEW YORK, NY 10003",NEW YORK,10003.0,"06,07,08",06,08,No,0.23600000000000002,,1%,14%,6%,10%,16%,65%,97%,2%,91%,Exceeding Target,90%,Meeting Target,90%,Exceeding Target,87%,Meeting Target,87%,Exceeding Target,95%,Exceeding Target,Exceeding Target,3.37,3.36
P.S. 102 BAYVIEW,24Q102,67,17,12%,35%,342400010102.0,24.0,40.73342,-73.87775,"55-24 VAN HORN ST ELMHURST, NY 11373",ELMHURST,11373.0,"0K,01,02,03,04,05,06,07,08",0K,08,No,0.535,"$54,319.34 ",13%,60%,3%,33%,36%,3%,96%,13%,91%,Exceeding Target,89%,Meeting Target,94%,Exceeding Target,82%,Meeting Target,80%,Approaching Target,91%,Meeting Target,Meeting Target,2.85,2.98
J.H.S. 189 DANIEL CARTER BEARD,25Q189,97,17,7%,30%,342500010189.0,25.0,40.760344,-73.817909,"144-80 BARCLAY AVE FLUSHING, NY 11355",FLUSHING,11355.0,"06,07,08",06,08,No,0.63,,24%,69%,3%,25%,28%,3%,97%,5%,94%,Meeting Target,94%,Meeting Target,88%,Exceeding Target,88%,Meeting Target,69%,Approaching Target,90%,Meeting Target,Meeting Target,2.64,2.98
I.S. 228 DAVID A. BOODY,21K228,160,17,4%,32%,332100010228.0,21.0,40.600815999999995,-73.976838,"228 AVE S BROOKLYN, NY 11223",BROOKLYN,11223.0,"06,07,08",06,08,No,0.636,,11%,29%,8%,26%,34%,36%,95%,16%,92%,Meeting Target,94%,Exceeding Target,88%,Meeting Target,89%,Exceeding Target,74%,Approaching Target,93%,Exceeding Target,Meeting Target,2.62,2.8
SCHOOL OF THE FUTURE HIGH SCHOOL,02M413,46,15,15%,37%,310200010413.0,2.0,40.739095,-73.985349,"127 E 22ND ST NEW YORK, NY 10010",NEW YORK,10010.0,"06,07,08,09,10,11,12",06,12,No,0.358,,1%,15%,11%,29%,40%,37%,97%,6%,88%,Exceeding Target,96%,Exceeding Target,88%,Exceeding Target,91%,Exceeding Target,76%,Meeting Target,92%,Meeting Target,Meeting Target,3.05,3.21
RIVERDALE / KINGSBRIDGE ACADEMY (MIDDLE SCHOOL / HIGH SCHOOL 141),10X141,75,15,6%,65%,321000011141.0,10.0,40.887701,-73.913605,"660 W 237TH ST BRONX, NY 10463",BRONX,10463.0,"06,07,08,09,10,11,12",06,12,No,0.418,,7%,7%,10%,56%,66%,26%,94%,13%,84%,Meeting Target,81%,Meeting Target,82%,Meeting Target,75%,Approaching Target,75%,Approaching Target,86%,Meeting Target,Meeting Target,2.74,2.93
M.S. 243 CENTER SCHOOL,03M243,38,14,25%,30%,310300010243.0,3.0,40.785101,-73.973867,"100 W 84TH ST-RM 310 NEW YORK, NY 10024",NEW YORK,10024.0,"05,06,07,08",05,08,No,0.18100000000000002,,0%,8%,15%,12%,27%,61%,98%,0%,96%,Exceeding Target,91%,Meeting Target,96%,Exceeding Target,90%,Meeting Target,91%,Exceeding Target,96%,Exceeding Target,Exceeding Target,3.61,3.57
P.S. 049 DOROTHY BONAWIT KOLE,24Q049,43,14,11%,24%,342400010049.0,24.0,40.719516999999996,-73.875034,"63-60 80TH ST MIDDLE VILLAGE, NY 11379",MIDDLE VILLAGE,11379.0,"0K,01,02,03,04,05,06,07,08",0K,08,No,0.348,"$67,367.55 ",7%,16%,0%,25%,26%,57%,96%,9%,92%,Meeting Target,93%,Exceeding Target,88%,Meeting Target,86%,Meeting Target,81%,Approaching Target,94%,Exceeding Target,Meeting Target,2.97,3.09
TOMPKINS SQUARE MIDDLE SCHOOL,01M839,66,14,11%,52%,310100010839.0,1.0,40.723746999999996,-73.981602,"600 E 6TH ST NEW YORK, NY 10009",NEW YORK,10009.0,"06,07,08",06,08,No,0.597,,3%,23%,16%,37%,53%,20%,96%,7%,90%,Exceeding Target,89%,Exceeding Target,88%,Meeting Target,86%,Meeting Target,83%,Meeting Target,94%,Exceeding Target,Exceeding Target,2.92,3.01
I.S. 027 ANNING S. PRALL,31R027,77,14,4%,63%,353100010027.0,31.0,40.628284,-74.117592,"11 CLOVE LAKE PL STATEN ISLAND, NY 10310",STATEN ISLAND,10310.0,"06,07,08",06,08,No,0.557,,5%,10%,24%,40%,63%,25%,92%,26%,84%,Approaching Target,87%,Approaching Target,79%,Approaching Target,75%,Approaching Target,69%,Not Meeting Target,86%,Approaching Target,Meeting Target,2.64,2.53
"THE QUEENS COLLEGE SCHOOL FOR MATH, SCIENCE AND TECHNOLOGY",25Q499,40,13,25%,34%,342500011499.0,25.0,40.738332,-73.82028000000001,"148-20 REEVES AVE FLUSHING, NY 11367",FLUSHING,11367.0,"PK,0K,01,02,03,04,05,06,07,08",PK,08,No,0.354,"$56,351.95 ",4%,53%,22%,12%,35%,10%,97%,3%,87%,Meeting Target,80%,Meeting Target,84%,Meeting Target,74%,Approaching Target,87%,Meeting Target,86%,Meeting Target,Meeting Target,3.12,3.38
P.S. 083 DONALD HERTZ,11X083,77,13,6%,55%,321100010083.0,11.0,40.849167,-73.858861,"950 RHINELANDER AVE BRONX, NY 10462",BRONX,10462.0,"0K,01,02,03,04,05,06,07,08",0K,08,No,0.611,"$51,523.99 ",12%,10%,9%,49%,58%,32%,95%,11%,85%,Meeting Target,87%,Exceeding Target,84%,Meeting Target,76%,Approaching Target,77%,Approaching Target,87%,Meeting Target,Meeting Target,2.6,2.76
MOTT HALL II,03M862,64,12,10%,70%,310300010862.0,3.0,40.802678,-73.96595,"234 W 109TH ST NEW YORK, NY 10025",NEW YORK,10025.0,"06,07,08",06,08,No,0.47700000000000004,,2%,6%,26%,37%,63%,26%,96%,8%,83%,Meeting Target,95%,Meeting Target,89%,Exceeding Target,93%,Exceeding Target,84%,Meeting Target,95%,Exceeding Target,Meeting Target,3.11,3.23
HUNTERS POINT COMMUNITY MIDDLE SCHOOL,30Q291,65,11,8%,58%,343000010291.0,30.0,40.74308,-73.959251,"1-50 51ST AVE LONG ISLAND CITY, NY 11101",LONG ISLAND CITY,11101.0,"06,07,08",06,08,No,0.563,,7%,16%,13%,51%,63%,18%,94%,14%,88%,Meeting Target,94%,Meeting Target,85%,Meeting Target,97%,Exceeding Target,85%,Exceeding Target,92%,Meeting Target,Meeting Target,2.68,2.8
P.S./I.S. 104 THE FORT HAMILTON SCHOOL,20K104,87,11,6%,31%,332000010104.0,20.0,40.618025,-74.028588,"9115 5TH AVE BROOKLYN, NY 11209",BROOKLYN,11209.0,"0K,01,02,03,04,05,06,07,08",0K,08,No,0.523,"$57,526.02 ",9%,22%,3%,25%,28%,47%,96%,10%,92%,Exceeding Target,93%,Exceeding Target,86%,Meeting Target,85%,Meeting Target,78%,Approaching Target,93%,Meeting Target,Meeting Target,2.82,3.09
I.S. 024 MYRA S. BARNES,31R024,132,11,3%,16%,353100010024.0,31.0,40.545792999999996,-74.145561,"225 CLEVELAND AVE STATEN ISLAND, NY 10308",STATEN ISLAND,10308.0,"06,07,08",06,08,No,0.254,,2%,3%,1%,12%,13%,83%,94%,15%,90%,Meeting Target,90%,Approaching Target,82%,Approaching Target,83%,Meeting Target,73%,Approaching Target,89%,Meeting Target,Meeting Target,2.85,2.88
SPRUCE STREET SCHOOL,02M397,36,10,18%,17%,310200010397.0,2.0,40.711057000000004,-74.005361,"12 SPRUCE ST NEW YORK, NY 10018",NEW YORK,10018.0,"0K,01,02,03,04,05,06,07,08",0K,08,No,0.059000000000000004,"$143,926.53 ",2%,14%,3%,12%,15%,58%,96%,6%,97%,Meeting Target,93%,Meeting Target,97%,Exceeding Target,93%,Exceeding Target,94%,Exceeding Target,95%,Meeting Target,Exceeding Target,3.29,3.58
PAULA HEDBAVNY SCHOOL,06M278,24,9,14%,81%,310600010278.0,6.0,40.871567,-73.912337,"421 W 219TH ST NEW YORK, NY 10034",NEW YORK,10034.0,"0K,01,02,03,04,05,06,07,08",0K,08,No,0.604,"$50,767.71 ",12%,2%,3%,77%,80%,17%,95%,13%,97%,Exceeding Target,96%,Meeting Target,94%,Exceeding Target,90%,Exceeding Target,86%,Meeting Target,96%,Exceeding Target,Meeting Target,2.76,2.86
"YOUNG WOMEN'S LEADERSHIP SCHOOL, QUEENS",28Q896,29,9,12%,56%,342800011896.0,28.0,40.708431,-73.80419599999999,"150-91 87TH RD JAMAICA, NY 11432",JAMAICA,11432.0,"07,08,09,10,11,12",07,12,No,0.496,,2%,32%,46%,14%,60%,3%,96%,6%,83%,Approaching Target,85%,Approaching Target,79%,Meeting Target,80%,Meeting Target,76%,Approaching Target,87%,Meeting Target,Meeting Target,3.06,3.0
"P.S. 128 THE LORRAINE TUZZO, JUNIPER VALLEY ELEMENTARY SCHOOL",24Q128,46,9,8%,20%,342400010128.0,24.0,40.715009,-73.886225,"69-10 65TH DR MIDDLE VILLAGE, NY 11379",MIDDLE VILLAGE,11379.0,"0K,01,02,03,04,05,06,07,08",0K,08,No,0.18,"$71,378.48 ",4%,3%,1%,20%,21%,76%,96%,4%,94%,Meeting Target,90%,Meeting Target,86%,Meeting Target,83%,Meeting Target,86%,Meeting Target,92%,Meeting Target,Meeting Target,3.08,3.23
P.S. 206 JOSEPH F LAMB,22K206,51,9,8%,11%,332200010206.0,22.0,40.597134999999994,-73.948515,"2200 GRAVESEND NECK RD BROOKLYN, NY 11229",BROOKLYN,11229.0,"PK,0K,01,02,03,04,05,06,07,08",PK,08,No,0.49700000000000005,"$57,254.23 ",19%,46%,2%,11%,13%,39%,96%,9%,92%,Meeting Target,91%,Exceeding Target,87%,Meeting Target,84%,Meeting Target,79%,Approaching Target,89%,Meeting Target,Exceeding Target,2.98,3.26
P.S. 048 WILLIAM G. WILCOX,31R048,70,9,8%,21%,353100010048.0,31.0,40.602835,-74.091981,"1050 TARGEE ST STATEN ISLAND, NY 10304",STATEN ISLAND,10304.0,"0K,01,02,03,04,05,06,07,08",0K,08,No,0.33399999999999996,"$72,831.32 ",6%,17%,4%,18%,22%,59%,95%,10%,94%,Exceeding Target,93%,Exceeding Target,88%,Meeting Target,92%,Exceeding Target,87%,Meeting Target,94%,Exceeding Target,Meeting Target,3.04,3.25
J.H.S. 292 MARGARET S. DOUGLAS,19K292,81,9,4%,78%,331900010292.0,19.0,40.671887,-73.89345300000001,"301 VERMONT ST BROOKLYN, NY 11207",BROOKLYN,11207.0,"06,07,08",06,08,No,0.848,,10%,12%,52%,33%,86%,1%,91%,29%,79%,Meeting Target,79%,Meeting Target,81%,Approaching Target,72%,Approaching Target,72%,Approaching Target,85%,Approaching Target,Meeting Target,2.39,2.44
I.S. 096 SETH LOW,21K096,114,9,3%,36%,332100010096.0,21.0,40.608043,-73.984972,"99 AVE P BROOKLYN, NY 11204",BROOKLYN,11204.0,"06,07,08",06,08,Yes,0.73,,29%,33%,11%,28%,38%,27%,93%,21%,90%,Meeting Target,93%,Exceeding Target,85%,Meeting Target,89%,Meeting Target,74%,Approaching Target,93%,Meeting Target,Exceeding Target,2.45,2.58
JEAN NUZZI INTERMEDIATE SCHOOL,29Q109,117,9,3%,59%,342900010109.0,29.0,40.720411999999996,-73.746572,"213-10 92ND AVE QUEENS VILLAGE, NY 11428",QUEENS VILLAGE,11428.0,"06,07,08",06,08,No,0.435,,10%,33%,40%,21%,61%,4%,94%,16%,89%,Meeting Target,86%,Approaching Target,78%,Approaching Target,82%,Meeting Target,72%,Approaching Target,86%,Approaching Target,Meeting Target,2.53,2.55
J.H.S. 127 THE CASTLE HILL,11X127,133,9,3%,64%,321100010127.0,11.0,40.838494,-73.853201,"1560 PURDY ST BRONX, NY 10462",BRONX,10462.0,"06,07,08",06,08,No,0.716,,18%,31%,23%,41%,64%,4%,94%,17%,90%,Meeting Target,93%,Exceeding Target,84%,Meeting Target,89%,Meeting Target,76%,Approaching Target,93%,Meeting Target,Meeting Target,2.49,2.62
INSTITUTE FOR COLLABORATIVE EDUCATION,02M407,21,8,11%,36%,310200011407.0,2.0,40.732676,-73.982576,"345 E 15TH ST NEW YORK, NY 10003",NEW YORK,10003.0,"06,07,08,09,10,11,12",06,12,No,0.258,,0%,7%,16%,16%,32%,55%,96%,13%,94%,Exceeding Target,98%,Exceeding Target,90%,Exceeding Target,98%,Exceeding Target,89%,Exceeding Target,96%,Exceeding Target,Approaching Target,3.28,2.95
BROOKLYN PROSPECT CHARTER SCHOOL,84K707,24,8,7%,48%,331500860935.0,15.0,40.648154999999996,-73.978583,"3002 FORT HAMILTON PKWY BROOKLYN, NY 11218",BROOKLYN,11218.0,"06,07,08,09,10,11,12",06,12,No,0.354,,2%,6%,15%,34%,49%,37%,96%,7%,85%,Approaching Target,91%,Meeting Target,87%,Exceeding Target,92%,Exceeding Target,86%,Meeting Target,94%,Exceeding Target,Meeting Target,2.82,3.05
P.S./I.S. 266,26Q266,33,8,10%,43%,342600010266.0,26.0,40.746010999999996,-73.728385,"74-10 COMMONWEALTH BLVD BELLEROSE, NY 11426",BELLEROSE,11426.0,"PK,0K,01,02,03,04,05,06,07,08",PK,08,No,0.239,"$77,165.95 ",3%,43%,14%,24%,38%,17%,97%,5%,89%,Meeting Target,88%,Exceeding Target,86%,Exceeding Target,87%,Meeting Target,84%,Meeting Target,90%,Meeting Target,Exceeding Target,3.07,3.33
P.S. 008 ROBERT FULTON,13K008,42,8,13%,27%,331300010008.0,13.0,40.700728000000005,-73.992805,"37 HICKS ST BROOKLYN, NY 11201",BROOKLYN,11201.0,"PK,0K,01,02,03,04,05,07,08",PK,08,No,0.179,"$111,743.74 ",2%,6%,14%,11%,25%,61%,96%,8%,91%,Exceeding Target,93%,Exceeding Target,84%,Meeting Target,90%,Exceeding Target,92%,Exceeding Target,92%,Meeting Target,Meeting Target,3.19,3.17
P.S./M.S. 194,11X194,64,8,5%,56%,321100010194.0,11.0,40.835236,-73.846547,"2365 WATERBURY AVE BRONX, NY 10462",BRONX,10462.0,"0K,01,02,03,04,05,06,07,08",0K,08,No,0.764,"$45,253.24 ",14%,33%,8%,53%,61%,4%,95%,16%,92%,Exceeding Target,87%,Exceeding Target,85%,Meeting Target,79%,Meeting Target,76%,Not Meeting Target,88%,Meeting Target,Meeting Target,2.5,2.82
LOWER MANHATTAN COMMUNITY MIDDLE SCHOOL,02M896,70,8,6%,28%,310200010896.0,2.0,40.705442,-74.012888,"26 BROADWAY-6TH FL NEW YORK, NY 10004",NEW YORK,10004.0,"06,07,08",06,08,No,0.564,,8%,40%,9%,20%,29%,27%,96%,8%,84%,Meeting Target,93%,Exceeding Target,90%,Exceeding Target,95%,Exceeding Target,85%,Exceeding Target,96%,Exceeding Target,Meeting Target,2.77,2.88
I.S. 034 TOTTENVILLE,31R034,81,8,2%,12%,353100010034.0,31.0,40.507803,-74.24322099999999,"528 ACADEMY AVE STATEN ISLAND, NY 10307",STATEN ISLAND,10307.0,"06,07,08",06,08,No,0.225,,1%,4%,0%,11%,11%,85%,93%,22%,90%,Exceeding Target,85%,Exceeding Target,84%,Meeting Target,78%,Meeting Target,72%,Approaching Target,87%,Meeting Target,Exceeding Target,3.0,3.02
I.S. 181 PABLO CASALS,11X181,124,8,3%,88%,321100010181.0,11.0,40.874988,-73.832178,"800 BAYCHESTER AVE BRONX, NY 10475",BRONX,10475.0,"06,07,08",06,08,No,0.534,,3%,5%,63%,26%,89%,4%,93%,21%,87%,Exceeding Target,90%,Exceeding Target,86%,Meeting Target,84%,Meeting Target,77%,Approaching Target,91%,Meeting Target,Meeting Target,2.66,2.67
P.S. 219 PAUL KLAPPER,25Q219,29,7,9%,36%,342500010219.0,25.0,40.735855,-73.823583,"144-39 GRAVETT RD FLUSHING, NY 11367",FLUSHING,11367.0,"PK,0K,01,02,03,04,05,06,07,08",PK,08,No,0.457,"$61,994.44 ",15%,44%,9%,32%,40%,16%,96%,13%,91%,Exceeding Target,86%,Exceeding Target,90%,Meeting Target,82%,Meeting Target,78%,Approaching Target,88%,Meeting Target,Exceeding Target,2.71,2.97
M.S. 839,15K839,36,7,7%,40%,331500010839.0,15.0,40.647837,-73.973229,"713 CATON AVE BROOKLYN, NY 11218",BROOKLYN,11218.0,"06,07,08",06,08,No,,,8%,14%,14%,33%,47%,36%,,,,,,,,,,,,,,,,,
P.S. 163 BATH BEACH,20K163,39,7,8%,36%,332000010163.0,20.0,40.606594,-74.007612,"109 BAY 14TH ST BROOKLYN, NY 11214",BROOKLYN,11214.0,"PK,0K,01,02,03,04,05",PK,05,No,0.655,"$55,697.95 ",17%,29%,1%,32%,33%,38%,96%,12%,95%,Exceeding Target,97%,Meeting Target,94%,Meeting Target,90%,Exceeding Target,83%,Meeting Target,96%,Exceeding Target,Exceeding Target,2.69,3.07
BROOKLYN URBAN GARDEN CHARTER SCHOOL,84K758,43,7,7%,72%,331500861011.0,15.0,40.656203999999995,-73.982638,"500 19TH ST BROOKLYN, NY 11215",BROOKLYN,11215.0,"06,07,08",06,08,No,0.485,,3%,7%,33%,33%,66%,23%,96%,8%,75%,Approaching Target,82%,Meeting Target,83%,Meeting Target,85%,Meeting Target,88%,Exceeding Target,89%,Meeting Target,Approaching Target,2.53,2.5
P.S. 226 ALFRED DE B.MASON,21K226,44,7,7%,31%,332100010226.0,21.0,40.615326,-73.97694399999999,"6006 23RD AVE BROOKLYN, NY 11204",BROOKLYN,11204.0,"PK,0K,01,02,03,04,05,06,07,08",PK,08,No,0.6920000000000001,"$47,058.63 ",21%,28%,2%,31%,33%,38%,95%,11%,95%,Exceeding Target,93%,Meeting Target,92%,Exceeding Target,85%,Meeting Target,82%,Meeting Target,93%,Exceeding Target,Meeting Target,2.72,2.89
HELLENIC CLASSICAL CHARTER SCHOOL,84K362,46,7,14%,62%,331500860878.0,15.0,40.662963,-73.992106,"646 5TH AVE BROOKLYN, NY 11215",BROOKLYN,11215.0,"0K,01,02,03,04,05,06,07,08",0K,08,No,0.484,"$52,361.11 ",3%,3%,26%,40%,66%,28%,96%,7%,96%,Exceeding Target,94%,Exceeding Target,94%,Exceeding Target,91%,Exceeding Target,85%,Meeting Target,95%,Exceeding Target,Exceeding Target,2.94,3.34
M.S. 131,02M131,54,7,5%,17%,310200010131.0,2.0,40.716213,-73.993555,"100 HESTER ST NEW YORK, NY 10002",NEW YORK,10002.0,"06,07,08",06,08,No,0.8370000000000001,,35%,77%,8%,14%,22%,0%,97%,9%,86%,Meeting Target,92%,Meeting Target,91%,Meeting Target,86%,Meeting Target,78%,Meeting Target,95%,Exceeding Target,Exceeding Target,2.49,3.02
M.S. X101 EDWARD R. BYRNE,08X101,66,7,5%,67%,320800010101.0,8.0,40.827214,-73.829212,"2750 LAFAYETTE AVE BRONX, NY 10465",BRONX,10465.0,"06,07,08",06,08,No,0.489,,1%,14%,10%,56%,66%,20%,95%,15%,89%,Meeting Target,86%,Meeting Target,88%,Meeting Target,85%,Meeting Target,73%,Approaching Target,89%,Meeting Target,Meeting Target,2.89,2.74
MARSH AVENUE SCHOOL FOR EXPEDITIONARY LEARNING,31R063,70,7,4%,31%,353100010063.0,31.0,40.581969,-74.15935999999999,"100 ESSEX DR STATEN ISLAND, NY 10314",STATEN ISLAND,10314.0,"06,07,08",06,08,No,0.317,,0%,10%,7%,20%,27%,62%,95%,10%,94%,Exceeding Target,88%,Exceeding Target,90%,Exceeding Target,85%,Meeting Target,76%,Approaching Target,86%,Approaching Target,Exceeding Target,3.03,3.01
P.S. 235 JANICE MARIE KNIGHT SCHOOL,18K235,89,7,8%,95%,331800010235.0,18.0,40.654737,-73.940641,"525 LENOX RD BROOKLYN, NY 11203",BROOKLYN,11203.0,"PK,0K,01,02,03,04,05,06,07,08",PK,08,No,0.52,"$48,361.64 ",1%,2%,93%,2%,95%,2%,95%,11%,92%,Meeting Target,94%,Meeting Target,86%,Meeting Target,90%,Exceeding Target,83%,Meeting Target,93%,Meeting Target,Exceeding Target,3.05,3.1
CONSELYEA PREPARATORY SCHOOL,14K577,90,7,4%,61%,331400010577.0,14.0,40.715274,-73.95705699999999,"208 N 5TH ST BROOKLYN, NY 11211",BROOKLYN,11211.0,"06,07,08",06,08,No,0.551,,3%,3%,3%,59%,62%,35%,95%,16%,92%,Exceeding Target,91%,Exceeding Target,88%,Meeting Target,89%,Meeting Target,78%,Meeting Target,92%,Meeting Target,Approaching Target,2.85,2.6
J.H.S. 278 MARINE PARK,22K278,98,7,2%,60%,332200010278.0,22.0,40.60667,-73.938716,"1925 STUART ST BROOKLYN, NY 11229",BROOKLYN,11229.0,"06,07,08",06,08,No,0.494,,3%,9%,47%,16%,63%,27%,94%,17%,91%,Exceeding Target,91%,Meeting Target,80%,Approaching Target,88%,Exceeding Target,94%,Exceeding Target,91%,Meeting Target,Meeting Target,2.78,2.68
I.S. 145 JOSEPH PULITZER,30Q145,137,7,1%,90%,343000010145.0,30.0,40.754326,-73.88759399999999,"33-34 80TH ST JACKSON HEIGHTS, NY 11372",JACKSON HEIGHTS,11372.0,"06,07,08",06,08,No,0.682,,21%,8%,1%,89%,90%,2%,96%,9%,87%,Meeting Target,85%,Meeting Target,86%,Exceeding Target,74%,Approaching Target,76%,Approaching Target,86%,Approaching Target,Meeting Target,2.43,2.57
WEST END SECONDARY SCHOOL,03M291,31,6,5%,25%,310300011291.0,3.0,40.772487,-73.988153,"227-243 W 61ST ST NEW YORK, NY 10023",NEW YORK,10023.0,"06,07,08",06,08,No,,,2%,4%,10%,18%,27%,63%,,,,,,,,,,,,,,,,,
THE BOERUM HILL SCHOOL FOR INTERNATIONAL STUDIES,15K497,32,6,6%,60%,331500011497.0,15.0,40.685159000000006,-73.993634,"284 BALTIC ST BROOKLYN, NY 11201",BROOKLYN,11201.0,"06,07,08,09,10,11,12",06,12,No,0.71,,11%,5%,43%,34%,77%,16%,95%,13%,83%,Meeting Target,85%,Exceeding Target,73%,Approaching Target,79%,Meeting Target,71%,Approaching Target,80%,Approaching Target,Approaching Target,2.14,2.01
SUCCESS ACADEMY CHARTER SCHOOL - BRONX 2,84X494,36,6,9%,97%,320900860980.0,9.0,40.835972999999996,-73.904838,"450 ST PAUL'S PL-5TH FL BRONX, NY 10456",BRONX,10456.0,"0K,01,02,03,04,05,06,07,08",0K,08,No,0.794,"$27,365.08 ",7%,1%,63%,34%,98%,1%,0%,100%,99%,Exceeding Target,95%,Exceeding Target,98%,Meeting Target,88%,Exceeding Target,94%,Exceeding Target,97%,Exceeding Target,Exceeding Target,3.16,3.91
P.S. 164 QUEENS VALLEY,25Q164,38,6,7%,32%,342500010164.0,25.0,40.721159,-73.823164,"138-01 77TH AVE FLUSHING, NY 11367",FLUSHING,11367.0,"PK,0K,01,02,03,04,05,06,07,08",PK,08,No,0.415,"$64,280.02 ",10%,29%,6%,26%,32%,38%,95%,10%,89%,Meeting Target,88%,Meeting Target,83%,Meeting Target,76%,Meeting Target,79%,Approaching Target,89%,Meeting Target,Meeting Target,2.95,3.24
P.S./I.S. 30 MARY WHITE OVINGTON,20K030,51,6,5%,32%,332000010030.0,20.0,40.633733,-74.02422,"7002 4TH AVE BROOKLYN, NY 11209",BROOKLYN,11209.0,"06,07,08",06,08,No,0.6509999999999999,"$50,776.12 ",26%,20%,2%,30%,31%,48%,95%,13%,87%,Meeting Target,88%,Exceeding Target,87%,Meeting Target,81%,Meeting Target,76%,Not Meeting Target,90%,Meeting Target,Meeting Target,2.71,2.81
MIDDLE VILLAGE PREP CHARTER SCHOOL,84Q298,58,6,5%,58%,342400861048.0,24.0,40.712244,-73.88786800000001,"6802 METROPOLITAN AVE MIDDLE VILLAGE, NY 11379",MIDDLE VILLAGE,11379.0,"06,07,08",06,08,No,0.436,,1%,5%,2%,56%,58%,36%,96%,7%,97%,Exceeding Target,97%,Exceeding Target,87%,Meeting Target,97%,Exceeding Target,84%,Meeting Target,96%,Exceeding Target,Exceeding Target,2.82,3.15
I.S. 051 EDWIN MARKHAM,31R051,101,6,1%,68%,353100010051.0,31.0,40.623011,-74.14529499999999,"20 HOUSTON ST STATEN ISLAND, NY 10302",STATEN ISLAND,10302.0,"06,07,08,SE",06,08,No,0.604,,8%,6%,22%,44%,66%,27%,91%,29%,85%,Approaching Target,86%,Exceeding Target,80%,Approaching Target,80%,Meeting Target,77%,Approaching Target,88%,Meeting Target,Meeting Target,2.47,2.32
P.S. 188 THE ISLAND SCHOOL,01M188,0,0,0%,95%,310100010188.0,1.0,40.71987,-73.977376,"442 E HOUSTON ST NEW YORK, NY 10002",NEW YORK,10002.0,"PK,0K,01,02,03,04,05,06,07,08",PK,08,Yes,0.917,"$27,881.59 ",16%,2%,30%,64%,93%,4%,91%,37%,100%,Meeting Target,100%,Exceeding Target,99%,Meeting Target,99%,Exceeding Target,92%,Exceeding Target,99%,Exceeding Target,Meeting Target,2.17,2.32
ELLA BAKER SCHOOL,02M225,0,0,0%,49%,310200011225.0,2.0,40.765368,-73.959696,"317 E 67TH ST NEW YORK, NY 10021",NEW YORK,10021.0,"PK,0K,01,02,03,04,05,06,07,08",PK,08,No,0.429,"$58,096.58 ",3%,4%,19%,37%,56%,35%,92%,26%,91%,Exceeding Target,91%,Exceeding Target,93%,Meeting Target,82%,Meeting Target,95%,Exceeding Target,90%,Meeting Target,Meeting Target,2.71,2.75
LIFE SCIENCES SECONDARY SCHOOL,02M655,0,0,0%,88%,310200011655.0,2.0,40.783283000000004,-73.945937,"320 E 96TH ST NEW YORK, NY 10128",NEW YORK,10128.0,"06,07,08,09,10,11,12",06,12,No,0.765,,6%,5%,31%,60%,91%,2%,90%,30%,90%,Meeting Target,90%,Approaching Target,77%,Approaching Target,67%,Not Meeting Target,65%,Not Meeting Target,81%,Approaching Target,Approaching Target,2.24,1.95
P.S. 076 A. PHILIP RANDOLPH,03M076,0,0,0%,97%,310300010076.0,3.0,40.806540999999996,-73.951368,"220 W 121ST ST NEW YORK, NY 10027",NEW YORK,10027.0,"PK,0K,01,02,03,04,05,06,07,08",PK,08,No,0.85,"$39,051.13 ",9%,1%,80%,16%,96%,3%,90%,42%,91%,Meeting Target,95%,Meeting Target,93%,Meeting Target,89%,Exceeding Target,89%,Exceeding Target,96%,Exceeding Target,Meeting Target,2.39,2.24
P.S. 149 SOJOURNER TRUTH,03M149,0,0,0%,91%,310300010149.0,3.0,40.802665999999995,-73.948256,"41 W 117TH ST NEW YORK, NY 10026",NEW YORK,10026.0,"PK,0K,01,02,03,04,05,06,07,08",PK,08,Yes,0.883,"$37,110.83 ",9%,3%,64%,27%,92%,2%,91%,37%,83%,Approaching Target,70%,Not Meeting Target,77%,Approaching Target,60%,Not Meeting Target,81%,Approaching Target,82%,Approaching Target,Approaching Target,2.1,2.03
M.S. 250 WEST SIDE COLLABORATIVE MIDDLE SCHOOL,03M250,0,0,0%,83%,310300010250.0,3.0,40.79511,-73.973988,"735 W END AVE NEW YORK, NY 10025",NEW YORK,10025.0,"06,07,08",06,08,No,0.6609999999999999,,6%,2%,32%,55%,87%,9%,94%,18%,91%,Meeting Target,98%,Exceeding Target,91%,Exceeding Target,97%,Exceeding Target,82%,Meeting Target,96%,Exceeding Target,Exceeding Target,2.61,2.44
FREDERICK DOUGLASS ACADEMY II SECONDARY SCHOOL,03M860,0,0,0%,95%,310300011860.0,3.0,40.802284,-73.95408,"215 W 114TH ST NEW YORK, NY 10026",NEW YORK,10026.0,"06,07,08,09,10,11,12",06,12,No,0.7859999999999999,,8%,2%,68%,27%,95%,1%,88%,34%,76%,Approaching Target,76%,Meeting Target,81%,Approaching Target,72%,Approaching Target,76%,Approaching Target,84%,Meeting Target,Meeting Target,2.32,2.22
P.S. 007 SAMUEL STERN,04M007,0,0,0%,93%,310400010007.0,4.0,40.800631,-73.939323,"160 E 120TH ST NEW YORK, NY 10035",NEW YORK,10035.0,"PK,0K,01,02,03,04,05,06,07,08",PK,08,No,0.899,"$24,553.59 ",12%,3%,30%,62%,92%,4%,90%,34%,90%,Meeting Target,86%,Exceeding Target,83%,Approaching Target,82%,Meeting Target,84%,Meeting Target,87%,Meeting Target,Exceeding Target,2.43,2.52
P.S. 096 JOSEPH LANZETTA,04M096,0,0,0%,93%,310400010096.0,4.0,40.799987,-73.937388,"216 E 120TH ST NEW YORK, NY 10035",NEW YORK,10035.0,"PK,0K,01,02,03,04,05,06,07,08",PK,08,No,0.902,"$25,392.85 ",18%,2%,26%,68%,94%,3%,91%,37%,88%,Approaching Target,85%,Meeting Target,89%,Meeting Target,77%,Approaching Target,77%,Not Meeting Target,88%,Approaching Target,Meeting Target,2.17,2.03
ESPERANZA PREPARATORY ACADEMY,04M372,0,0,0%,96%,310400010372.0,4.0,40.792590000000004,-73.94211899999999,"240 E 109TH ST NEW YORK, NY 10029",NEW YORK,10029.0,"06,07,08,09,10,11,12",06,12,No,0.836,,28%,1%,15%,82%,97%,2%,91%,35%,87%,Exceeding Target,77%,Approaching Target,84%,Meeting Target,72%,Approaching Target,77%,Approaching Target,85%,Approaching Target,Meeting Target,2.19,2.08
GLOBAL TECHNOLOGY PREPARATORY,04M406,0,0,0%,93%,310400010406.0,4.0,40.800631,-73.939323,"160 E 120TH ST NEW YORK, NY 10035",NEW YORK,10035.0,"06,07,08",06,08,No,0.85,,11%,3%,40%,56%,97%,1%,95%,15%,89%,Approaching Target,99%,Exceeding Target,88%,Meeting Target,96%,Exceeding Target,81%,Meeting Target,94%,Meeting Target,Exceeding Target,2.27,2.36
P.S. 123 MAHALIA JACKSON,05M123,0,0,0%,92%,310500010123.0,5.0,40.820192,-73.944457,"301 W 140TH ST NEW YORK, NY 10030",NEW YORK,10030.0,"PK,0K,01,02,03,04,05,06,07,08",PK,08,Yes,0.835,"$34,752.53 ",17%,2%,52%,41%,93%,4%,88%,49%,83%,Approaching Target,72%,Approaching Target,84%,Approaching Target,65%,Not Meeting Target,82%,Approaching Target,81%,Approaching Target,Approaching Target,2.11,2.0
HARBOR HEIGHTS,06M349,0,0,0%,100%,310600010349.0,6.0,40.845620000000004,-73.939738,"306 FORT WASHINGTON AVE-RM  414 NEW YORK, NY 10033",NEW YORK,10033.0,"06,07,08",06,08,No,0.878,,91%,0%,0%,100%,100%,0%,97%,3%,85%,Meeting Target,93%,Meeting Target,89%,Exceeding Target,88%,Meeting Target,85%,Meeting Target,94%,Meeting Target,Approaching Target,1.81,2.03
I.S. 528 BEA FULLER RODGERS SCHOOL,06M528,0,0,0%,100%,310600010528.0,6.0,40.850676,-73.934697,"180 WADSWORTH AVE NEW YORK, NY 10033",NEW YORK,10033.0,"06,07,08",06,08,Yes,0.867,,19%,1%,2%,97%,99%,0%,95%,14%,82%,Approaching Target,82%,Approaching Target,91%,Meeting Target,78%,Approaching Target,85%,Meeting Target,91%,Meeting Target,Meeting Target,2.24,2.19
J.H.S. 151 LOU GEHRIG,07X151,0,0,0%,97%,320700010151.0,7.0,40.822539,-73.921487,"250 E 156TH ST BRONX, NY 10451",BRONX,10451.0,"06,07,08",06,08,No,0.89,,34%,1%,28%,69%,98%,1%,92%,29%,88%,Meeting Target,90%,Meeting Target,85%,Meeting Target,78%,Approaching Target,80%,Meeting Target,90%,Meeting Target,Meeting Target,2.1,1.98
P.S./I.S. 224,07X224,0,0,0%,98%,320700010224.0,7.0,40.810207,-73.91839,"345 BROOK AVE BRONX, NY 10454",BRONX,10454.0,"06,07,08",06,08,No,0.903,,26%,0%,25%,74%,98%,1%,90%,35%,87%,Meeting Target,87%,Meeting Target,81%,Meeting Target,80%,Approaching Target,79%,Approaching Target,88%,Meeting Target,Meeting Target,2.18,2.13
HOSTOS-LINCOLN ACADEMY OF SCIENCE,07X500,0,0,0%,96%,320700011500.0,7.0,40.814702000000004,-73.912036,"600 ST ANNS AVE BRONX, NY 10455",BRONX,10455.0,"06,07,08,09,10,11,12",06,12,No,0.799,,5%,3%,18%,76%,94%,1%,93%,21%,83%,Approaching Target,79%,Approaching Target,76%,Approaching Target,71%,Approaching Target,77%,Meeting Target,86%,Meeting Target,Approaching Target,2.26,2.19
THE URBAN ASSEMBLY BRONX ACADEMY OF LETTERS,07X551,0,0,0%,96%,320700011551.0,7.0,40.81366,-73.925999,"339 MORRIS AVE BRONX, NY 10451",BRONX,10451.0,"06,07,08,09,10,11,12,SE",06,12,No,0.882,,14%,1%,30%,67%,97%,2%,90%,33%,80%,Approaching Target,79%,Approaching Target,76%,Meeting Target,72%,Approaching Target,77%,Approaching Target,83%,Approaching Target,Approaching Target,2.08,2.06
BRONX STUDIO SCHOOL FOR WRITERS AND ARTISTS,08X269,0,0,0%,98%,320800011269.0,8.0,40.820398,-73.892938,"928 SIMPSON ST BRONX, NY 10459",BRONX,10459.0,"06,07,08,09,10,11,12",06,12,Yes,0.853,,14%,1%,22%,76%,98%,1%,92%,29%,81%,Approaching Target,84%,Meeting Target,79%,Approaching Target,82%,Meeting Target,75%,Approaching Target,91%,Meeting Target,Meeting Target,2.24,2.15
M.S. 301 PAUL L. DUNBAR,08X301,0,0,0%,98%,320800010301.0,8.0,40.822303000000005,-73.906686,"890 CAULDWELL AVE BRONX, NY 10456",BRONX,10456.0,"06,07,08",06,08,Yes,0.823,,22%,0%,41%,57%,98%,1%,88%,45%,84%,Approaching Target,89%,Meeting Target,87%,Approaching Target,85%,Meeting Target,80%,Meeting Target,92%,Meeting Target,Approaching Target,1.97,1.95
THE HUNTS POINT SCHOOL,08X424,0,0,0%,96%,320800010424.0,8.0,40.815594,-73.885238,"730 BRYANT AVE BRONX, NY 10474",BRONX,10474.0,"06,07,08",06,08,Yes,0.8759999999999999,,27%,0%,21%,77%,98%,1%,90%,35%,83%,Approaching Target,74%,Not Meeting Target,83%,Approaching Target,73%,Approaching Target,82%,Meeting Target,86%,Meeting Target,Meeting Target,2.11,2.02
I.S. 117 JOSEPH H. WADE,09X117,0,0,0%,97%,320900010117.0,9.0,40.848521000000005,-73.908447,"1865 MORRIS AVE BRONX, NY 10453",BRONX,10453.0,"06,07,08",06,08,Yes,0.9,,41%,2%,17%,80%,97%,1%,89%,39%,77%,Approaching Target,70%,Approaching Target,80%,Approaching Target,68%,Not Meeting Target,80%,Meeting Target,84%,Approaching Target,Approaching Target,2.04,2.0
I.S. 229 ROLAND PATTERSON,09X229,0,0,0%,98%,320900010229.0,9.0,40.841563,-73.929604,"275 HARLEM RIVER PARK BRIDGE BRONX, NY 10453",BRONX,10453.0,"05,06,07,08",05,08,No,0.885,,20%,1%,35%,63%,98%,1%,90%,38%,78%,Approaching Target,65%,Approaching Target,83%,Approaching Target,63%,Not Meeting Target,81%,Meeting Target,81%,Approaching Target,Approaching Target,2.1,1.99
INTERNATIONAL SCHOOL FOR LIBERAL ARTS,10X342,0,0,0%,100%,321000011342.0,10.0,40.870295,-73.897019,"2780 RESERVOIR AVE BRONX, NY 10468",BRONX,10468.0,"06,07,08,09,10,11,12",06,12,No,0.857,,61%,0%,0%,99%,100%,0%,97%,8%,91%,Meeting Target,93%,Exceeding Target,87%,Meeting Target,88%,Meeting Target,82%,Meeting Target,92%,Meeting Target,Meeting Target,2.15,2.18
J.H.S. 098 HERMAN RIDDER,12X098,0,0,0%,95%,321200010098.0,12.0,40.835821,-73.89098299999999,"1619 BOSTON RD BRONX, NY 10460",BRONX,10460.0,"06,07,08",06,08,No,0.865,,21%,1%,29%,67%,96%,2%,90%,35%,85%,Approaching Target,90%,Approaching Target,76%,Approaching Target,87%,Meeting Target,91%,Exceeding Target,92%,Meeting Target,Meeting Target,2.07,2.15
P.S. 212,12X212,0,0,0%,98%,321200010212.0,12.0,40.828715,-73.900452,"1180 TINTON AVE BRONX, NY 10456",BRONX,10456.0,"PK,0K,01,02,03,04,05,06,07,08",PK,08,No,0.8909999999999999,"$26,962.88 ",19%,1%,35%,61%,95%,1%,91%,35%,89%,Approaching Target,90%,Meeting Target,84%,Approaching Target,84%,Meeting Target,78%,Approaching Target,90%,Meeting Target,Meeting Target,2.15,2.26
BRONX LATIN,12X267,0,0,0%,97%,321200011267.0,12.0,40.827387,-73.900529,"800 HOME ST BRONX, NY 10456",BRONX,10456.0,"06,07,08,09,10,11,12",06,12,No,0.835,,12%,2%,21%,77%,98%,0%,94%,13%,93%,Exceeding Target,97%,Exceeding Target,91%,Exceeding Target,96%,Exceeding Target,87%,Exceeding Target,96%,Exceeding Target,Exceeding Target,2.34,2.33
FANNIE LOU HAMER MIDDLE SCHOOL,12X286,0,0,0%,97%,321200010286.0,12.0,40.831394,-73.886584,"1001 JENNINGS ST BRONX, NY 10460",BRONX,10460.0,"06,07,08,SE",06,08,Yes,0.843,,16%,1%,26%,71%,97%,1%,92%,20%,89%,Meeting Target,94%,Meeting Target,86%,Meeting Target,93%,Exceeding Target,80%,Meeting Target,94%,Exceeding Target,Meeting Target,2.23,2.17
DR. SUSAN S. MCKINNEY SECONDARY SCHOOL OF THE ARTS,13K265,0,0,0%,95%,331300010265.0,13.0,40.697012,-73.97604399999999,"101 PARK AVE BROOKLYN, NY 11205",BROOKLYN,11205.0,"06,07,08,09,10,11,12",06,12,No,0.782,,5%,2%,73%,23%,96%,0%,91%,36%,86%,Meeting Target,85%,Meeting Target,81%,Approaching Target,85%,Meeting Target,79%,Meeting Target,87%,Approaching Target,Meeting Target,2.24,2.08
JUAN MOREL CAMPOS SECONDARY SCHOOL,14K071,0,0,0%,93%,331400011071.0,14.0,40.703878,-73.95347199999999,"215 HEYWARD ST BROOKLYN, NY 11206",BROOKLYN,11206.0,"06,07,08,09,10,11,12",06,12,Yes,0.868,,22%,1%,15%,78%,93%,5%,90%,35%,88%,Meeting Target,92%,Meeting Target,82%,Meeting Target,88%,Meeting Target,77%,Meeting Target,91%,Meeting Target,Approaching Target,2.06,1.99
M.S. 582,14K582,0,0,0%,93%,331400010582.0,14.0,40.708781,-73.93952900000001,"207 BUSHWICK AVE BROOKLYN, NY 11206",BROOKLYN,11206.0,"06,07,08",06,08,No,0.825,,11%,0%,23%,72%,95%,3%,92%,29%,97%,Exceeding Target,96%,Exceeding Target,93%,Exceeding Target,92%,Exceeding Target,84%,Meeting Target,95%,Exceeding Target,Meeting Target,2.38,2.15
YOUNG WOMEN'S LEADERSHIP SCHOOL OF BROOKLYN,14K614,0,0,0%,88%,331400011614.0,14.0,40.705023,-73.938707,"325 BUSHWICK AVE BROOKLYN, NY 11206",BROOKLYN,11206.0,"06,07,08,09,10,11,12",06,12,No,0.68,,4%,4%,58%,33%,91%,2%,92%,26%,84%,Meeting Target,88%,Exceeding Target,85%,Meeting Target,83%,Meeting Target,81%,Meeting Target,93%,Exceeding Target,Meeting Target,2.52,2.44
"SCHOOL FOR HUMAN RIGHTS, THE",17K531,0,0,0%,96%,331700011531.0,17.0,40.658665,-73.943838,"600 KINGSTON AVE BROOKLYN, NY 11203",BROOKLYN,11203.0,"06,07,08,09,10,11,12",06,12,No,0.687,,4%,1%,87%,10%,97%,0%,94%,18%,97%,Meeting Target,99%,Exceeding Target,86%,Meeting Target,95%,Exceeding Target,80%,Meeting Target,94%,Exceeding Target,Meeting Target,2.38,2.23
P.S. 041 FRANCIS WHITE,23K041,0,0,0%,91%,332300010041.0,23.0,40.660182,-73.906873,"411 THATFORD AVE BROOKLYN, NY 11212",BROOKLYN,11212.0,"0K,01,02,03,04,05,06,07,08",0K,08,No,0.9,"$29,567.13 ",6%,1%,63%,32%,95%,1%,89%,42%,87%,Approaching Target,88%,Meeting Target,79%,Approaching Target,81%,Meeting Target,77%,Not Meeting Target,87%,Approaching Target,Approaching Target,2.14,2.13
P.S. 178 SAINT CLAIR MCKELWAY,23K178,0,0,0%,93%,332300010178.0,23.0,40.675234,-73.915306,"2163 DEAN ST BROOKLYN, NY 11233",BROOKLYN,11233.0,"PK,0K,01,02,03,04,05,06,07,08",PK,08,No,0.884,"$31,132.53 ",7%,1%,79%,16%,95%,2%,89%,46%,94%,Meeting Target,95%,Meeting Target,88%,Approaching Target,88%,Exceeding Target,90%,Exceeding Target,96%,Exceeding Target,Meeting Target,2.26,2.31
P.S. 184 NEWPORT,23K184,0,0,0%,98%,332300010184.0,23.0,40.660228000000004,-73.90494699999999,"273 NEWPORT ST BROOKLYN, NY 11212",BROOKLYN,11212.0,"PK,0K,01,02,03,04,05,06,07,08,SE",PK,08,No,0.904,"$29,709.42 ",4%,1%,71%,27%,98%,0%,88%,48%,83%,Approaching Target,80%,Approaching Target,80%,Approaching Target,72%,Approaching Target,87%,Meeting Target,86%,Approaching Target,Approaching Target,2.17,2.21
TEACHERS PREPARATORY HIGH SCHOOL,23K697,0,0,0%,93%,332300011697.0,23.0,40.66553,-73.912061,"226 BRISTOL ST BROOKLYN, NY 11212",BROOKLYN,11212.0,"06,07,08,09,10,11,12",06,12,No,0.7120000000000001,,2%,1%,80%,17%,97%,1%,90%,33%,84%,Approaching Target,82%,Meeting Target,76%,Approaching Target,76%,Approaching Target,73%,Approaching Target,81%,Approaching Target,Meeting Target,2.44,2.39
P.S./M.S. 042 R. VERNAM,27Q042,0,0,0%,95%,342700010042.0,27.0,40.594435,-73.794945,"488 BEACH 66TH ST ARVERNE, NY 11692",ARVERNE,11692.0,"0K,01,02,03,04,05,06,07,08",0K,08,Yes,0.825,"$47,183.73 ",4%,1%,71%,24%,95%,2%,88%,48%,90%,Approaching Target,86%,Meeting Target,90%,Approaching Target,77%,Approaching Target,84%,Meeting Target,89%,Meeting Target,Approaching Target,2.03,1.99
P.S. 047 CHRIS GALAS,27Q047,0,0,0%,20%,342700010047.0,27.0,40.606725,-73.82017900000001,"9 POWER RD BROAD CHANNEL, NY 11693",BROAD CHANNEL,11693.0,"PK,0K,01,02,03,04,05,06,07,08,SE",PK,08,No,0.304,"$67,021.51 ",1%,0%,2%,15%,17%,83%,94%,14%,95%,Exceeding Target,95%,Exceeding Target,92%,Exceeding Target,86%,Meeting Target,88%,Meeting Target,96%,Exceeding Target,Exceeding Target,2.97,3.21
P.S./M.S. 114 BELLE HARBOR,27Q114,0,0,0%,13%,342700010114.0,27.0,40.578277,-73.854294,"134-01 CRONSTON AVE ROCKAWAY PARK, NY 11694",ROCKAWAY PARK,11694.0,"PK,0K,01,02,03,04,05,06,07,08",PK,08,No,0.371,"$95,258.88 ",0%,1%,3%,9%,11%,87%,94%,11%,89%,Approaching Target,85%,Approaching Target,91%,Meeting Target,68%,Approaching Target,85%,Meeting Target,84%,Meeting Target,Exceeding Target,2.99,3.13
WATERSIDE SCHOOL FOR LEADERSHIP,27Q318,0,0,0%,88%,342700010318.0,27.0,40.579602,-73.831079,"1-90 BEACH 110TH ST ROCKAWAY PARK, NY 11694",ROCKAWAY PARK,11694.0,"06,07,08",06,08,No,0.755,,9%,2%,55%,34%,88%,8%,93%,26%,94%,Exceeding Target,89%,Exceeding Target,92%,Exceeding Target,90%,Exceeding Target,89%,Exceeding Target,90%,Meeting Target,Exceeding Target,2.3,2.16
EAGLE ACADEMY FOR YOUNG MEN III,29Q327,0,0,0%,92%,342900011327.0,29.0,40.691665,-73.778987,"171-10 LINDEN BLVD JAMAICA, NY 11434",JAMAICA,11434.0,"06,07,08,09,10,11,12",06,12,No,0.419,,0%,1%,86%,3%,90%,3%,93%,27%,81%,Meeting Target,66%,Meeting Target,81%,,61%,Approaching Target,84%,,80%,,Meeting Target,2.41,2.42
P.S. K140,75K140,0,0,0%,91%,,,,,,,,,,,,,,,,,,,,,,,,,,,,,,,,,,,,
P.S. K369 - COY L. COX SCHOOL,75K369,0,0,0%,87%,,,,,,,,,,,,,,,,,,,,,,,,,,,,,,,,,,,,
P.S. M094,75M094,0,0,0%,75%,,,,,,,,,,,,,,,,,,,,,,,,,,,,,,,,,,,,
SOUTH RICHMOND HIGH SCHOOL I.S./P.S. 25,75R025,0,0,0%,69%,,,,,,,,,,,,,,,,,,,,,,,,,,,,,,,,,,,,
P.S. X017,75X017,0,0,0%,92%,,,,,,,,,,,,,,,,,,,,,,,,,,,,,,,,,,,,
P.S. 168,75X168,0,0,0%,94%,,,,,,,,,,,,,,,,,,,,,,,,,,,,,,,,,,,,
P.S. X176,75X176,0,0,0%,90%,,,,,,,,,,,,,,,,,,,,,,,,,,,,,,,,,,,,
CAPITAL PREPARATORY (CP) HARLEM CHARTER SCHOOL,84M204,0,0,0%,98%,,,,,,,,,,,,,,,,,,,,,,,,,,,,,,,,,,,,
NEW HEIGHTS ACADEMY CHARTER SCHOOL,84M353,0,0,0%,100%,310600860887.0,6.0,40.828615,-73.945402,"1818 AMSTERDAM AVE NEW YORK, NY 10031",NEW YORK,10031.0,"05,06,07,08,09,10,11,12",05,12,No,0.838,,11%,0%,4%,96%,100%,0%,96%,10%,84%,Approaching Target,89%,Meeting Target,84%,Meeting Target,78%,Approaching Target,78%,Meeting Target,89%,Meeting Target,Approaching Target,2.37,2.38
BRONX LIGHTHOUSE CHARTER SCHOOL,84X185,0,0,0%,98%,321200860870.0,12.0,40.823187,-73.897385,"1001 INTERVALE AVE BRONX, NY 10459",BRONX,10459.0,"0K,01,02,03,04,05,06,07,08,09,10,11,12",0K,12,No,0.748,"$28,271.22 ",8%,1%,35%,62%,97%,0%,95%,14%,82%,Approaching Target,86%,Meeting Target,79%,Meeting Target,85%,Meeting Target,77%,Not Meeting Target,86%,Approaching Target,Approaching Target,2.33,2.54
P.S. 034 FRANKLIN D. ROOSEVELT,01M034,6,0,0%,93%,310100010034.0,1.0,40.726147,-73.975043,"730 E 12TH ST NEW YORK, NY 10009",NEW YORK,10009.0,"PK,0K,01,02,03,04,05,06,07,08",PK,08,No,0.86,"$31,454.00 ",7%,5%,29%,63%,92%,4%,92%,28%,85%,Approaching Target,78%,Meeting Target,82%,Meeting Target,73%,Approaching Target,89%,Meeting Target,88%,Meeting Target,Exceeding Target,2.48,2.47
P.S. 140 NATHAN STRAUS,01M140,6,0,0%,91%,310100010140.0,1.0,40.719128000000005,-73.983283,"123 RIDGE ST NEW YORK, NY 10002",NEW YORK,10002.0,"PK,0K,01,02,03,04,05,06,07,08",PK,08,No,0.8490000000000001,"$34,889.24 ",14%,5%,13%,78%,90%,3%,93%,27%,94%,Meeting Target,91%,Approaching Target,85%,Meeting Target,87%,Meeting Target,83%,Meeting Target,93%,Meeting Target,Meeting Target,2.21,2.27
P.S./I.S. 217 ROOSEVELT ISLAND,02M217,6,0,0%,26%,310200010217.0,2.0,40.763969,-73.948468,"645 MAIN ST ROOSEVELT ISLAND, NY 10044",ROOSEVELT ISLAND,10044.0,"PK,0K,01,02,03,04,05,06,07,08",PK,08,No,0.293,"$93,388.06 ",7%,29%,16%,14%,30%,36%,95%,10%,93%,Exceeding Target,95%,Exceeding Target,89%,Meeting Target,88%,Meeting Target,89%,Exceeding Target,92%,Meeting Target,Meeting Target,2.9,3.01
THE RIVERSIDE SCHOOL FOR MAKERS AND ARTISTS,03M191,6,0,0%,77%,310300010191.0,3.0,40.771743,-73.987572,"210 W 61ST ST NEW YORK, NY 10023",NEW YORK,10023.0,"PK,0K,01,02,03,04,05",PK,05,No,0.758,"$63,947.38 ",8%,7%,36%,45%,81%,11%,91%,33%,82%,Approaching Target,79%,Approaching Target,82%,Approaching Target,70%,Approaching Target,88%,Meeting Target,88%,Meeting Target,Approaching Target,2.23,2.1
RENAISSANCE SCHOOL OF THE ARTS,04M377,6,0,0%,95%,310400010377.0,4.0,40.797495,-73.936193,"319 E 117TH ST NEW YORK, NY 10035",NEW YORK,10035.0,"06,07,08",06,08,Yes,0.865,,10%,1%,45%,53%,98%,1%,90%,32%,89%,Approaching Target,93%,Meeting Target,88%,Meeting Target,89%,Meeting Target,90%,Exceeding Target,95%,Exceeding Target,Meeting Target,2.32,2.15
CENTRAL PARK EAST II,04M964,6,0,0%,65%,310400010964.0,4.0,40.792304,-73.951449,"19 E 103 ST NEW YORK, NY 10029",NEW YORK,10029.0,"0K,01,02,03,04,05,06,07,08,SE",0K,08,No,0.46,"$42,839.62 ",1%,6%,29%,31%,60%,25%,93%,18%,95%,Exceeding Target,98%,Exceeding Target,97%,Exceeding Target,98%,Exceeding Target,94%,Exceeding Target,97%,Exceeding Target,Meeting Target,2.96,3.08
P.S. 018 PARK TERRACE,06M018,6,0,0%,99%,310600010018.0,6.0,40.871646000000005,-73.911618,"4124 9TH AVE NEW YORK, NY 10034",NEW YORK,10034.0,"0K,01,02,03,04,05,06,07,08",0K,08,No,0.823,"$44,006.21 ",44%,0%,1%,97%,98%,2%,93%,23%,92%,Meeting Target,87%,Meeting Target,86%,Meeting Target,79%,Meeting Target,85%,Meeting Target,90%,Meeting Target,Meeting Target,2.1,2.36
WASHINGTON HEIGHTS EXPEDITIONARY LEARNING SCHOOL,06M348,6,0,0%,95%,310600011348.0,6.0,40.849099,-73.931106,"511 W 182ND ST NEW YORK, NY 10033",NEW YORK,10033.0,"PK,0K,01,02,03,04,05,06,07,08,09,10,11,12",PK,12,No,0.84,,17%,1%,3%,94%,97%,2%,94%,18%,83%,Meeting Target,87%,Exceeding Target,89%,Meeting Target,76%,Approaching Target,79%,Approaching Target,92%,Meeting Target,Meeting Target,2.48,2.67
SOUTH BRONX ACADEMY FOR APPLIED MEDIA,07X296,6,0,0%,97%,320700010296.0,7.0,40.818906,-73.905333,"778 FOREST AVE BRONX, NY 10456",BRONX,10456.0,"06,07,08",06,08,No,0.9079999999999999,,13%,1%,34%,63%,97%,1%,89%,38%,78%,Approaching Target,75%,Approaching Target,82%,Approaching Target,71%,Approaching Target,71%,Not Meeting Target,83%,Approaching Target,Approaching Target,2.13,2.04
P.S. X037 - MULTIPLE INTELLIGENCE SCHOOL,10X037,6,0,0%,95%,321000010037.0,10.0,40.87984,-73.910788,"360 W 230TH ST BRONX, NY 10463",BRONX,10463.0,"0K,01,02,03,04,05,06,07,08",0K,08,No,0.752,"$69,064.16 ",15%,2%,23%,72%,95%,2%,92%,33%,93%,Meeting Target,92%,Meeting Target,85%,Approaching Target,86%,Meeting Target,88%,Meeting Target,92%,Meeting Target,Meeting Target,2.37,2.55
THEATRE ARTS PRODUCTION COMPANY SCHOOL,10X225,6,0,0%,96%,321000010225.0,10.0,40.854655,-73.897036,"2225 WEBSTER AVE BRONX, NY 10457",BRONX,10457.0,"06,07,08,09,10,11,12",06,12,No,0.8059999999999999,,6%,1%,27%,68%,95%,2%,92%,26%,84%,Approaching Target,87%,Meeting Target,81%,Meeting Target,80%,Meeting Target,76%,Approaching Target,91%,Meeting Target,Meeting Target,2.38,2.48
URBAN ASSEMBLY SCHOOL FOR WILDLIFE CONSERVATION,12X372,6,0,0%,94%,321200010372.0,12.0,40.843884,-73.88431700000001,"2024 MOHEGAN AVE BRONX, NY 10460",BRONX,10460.0,"06,07,08,09,10,11,12",06,12,No,0.809,,11%,1%,27%,69%,96%,2%,87%,42%,90%,Approaching Target,76%,Approaching Target,83%,Approaching Target,62%,Not Meeting Target,78%,Approaching Target,79%,Meeting Target,Meeting Target,2.27,2.24
LYONS COMMUNITY SCHOOL,14K586,6,0,0%,96%,331400011586.0,14.0,40.709765000000004,-73.944519,"223 GRAHAM AVE BROOKLYN, NY 11206",BROOKLYN,11206.0,"06,07,08,09,10,11,12",06,12,No,0.843,,11%,1%,40%,56%,97%,1%,88%,39%,85%,Approaching Target,95%,Meeting Target,84%,Meeting Target,92%,Exceeding Target,84%,Exceeding Target,93%,Exceeding Target,Approaching Target,2.11,1.89
BROOKLYN SECONDARY SCHOOL FOR COLLABORATIVE STUDIES,15K448,6,0,0%,83%,331500010448.0,15.0,40.679432,-74.00194300000001,"610 HENRY ST BROOKLYN, NY 11231",BROOKLYN,11231.0,"06,07,08,09,10,11,12",06,12,No,0.635,,7%,3%,40%,45%,85%,10%,94%,17%,85%,Exceeding Target,91%,Exceeding Target,85%,Meeting Target,87%,Meeting Target,81%,Meeting Target,93%,Exceeding Target,Approaching Target,2.49,2.04
ELIJAH STROUD MIDDLE SCHOOL,17K353,6,0,0%,96%,331700010353.0,17.0,40.674551,-73.96086700000001,"750 CLASSON AVE BROOKLYN, NY 11238",BROOKLYN,11238.0,"06,07,08",06,08,No,0.746,,4%,2%,83%,14%,96%,2%,93%,22%,91%,Meeting Target,90%,Meeting Target,86%,Meeting Target,89%,Meeting Target,78%,Meeting Target,94%,Exceeding Target,Approaching Target,2.16,2.14
SPRING CREEK COMMUNITY SCHOOL,19K422,6,0,0%,95%,331900011422.0,19.0,40.6573,-73.874138,"1065 ELTON ST BROOKLYN, NY 11208",BROOKLYN,11208.0,"06,07,08,09,10,11,12",06,12,Yes,0.777,,3%,1%,72%,24%,96%,1%,91%,31%,88%,Meeting Target,96%,Exceeding Target,85%,Meeting Target,94%,Meeting Target,77%,Meeting Target,93%,Meeting Target,Approaching Target,2.27,2.1
RIVERDALE AVENUE MIDDLE SCHOOL,23K668,6,0,0%,92%,332300010668.0,23.0,40.65997,-73.913616,"76 RIVERDALE AVE BROOKLYN, NY 11212",BROOKLYN,11212.0,"06,07,08",06,08,No,0.804,,6%,1%,87%,11%,98%,0%,92%,27%,97%,Exceeding Target,91%,Meeting Target,92%,Exceeding Target,92%,Exceeding Target,85%,Meeting Target,93%,Exceeding Target,Meeting Target,2.18,2.25
PATHWAYS COLLEGE PREPARATORY SCHOOL: A COLLEGE BOARD SCHOOL,29Q259,6,0,0%,91%,342900011259.0,29.0,40.706768,-73.753793,"109-89 204TH ST SAINT ALBANS, NY 11412",SAINT ALBANS,11412.0,"06,07,08,09,10,11,12",06,12,No,0.396,,3%,4%,88%,6%,94%,1%,96%,10%,86%,Approaching Target,83%,Meeting Target,84%,Meeting Target,76%,Approaching Target,75%,Approaching Target,85%,Approaching Target,Approaching Target,2.54,2.24
ACADEMY FOR NEW AMERICANS,30Q235,6,0,0%,67%,343000010235.0,30.0,40.766708,-73.923052,"30-14 30TH ST ASTORIA, NY 11102",ASTORIA,11102.0,"06,07,08",06,08,No,0.6759999999999999,,99%,22%,1%,61%,63%,15%,96%,11%,93%,Meeting Target,96%,Meeting Target,96%,Exceeding Target,92%,Exceeding Target,84%,Meeting Target,96%,Exceeding Target,,1.91,2.34
P.S. 165 ROBERT E. SIMON,03M165,7,0,0%,75%,310300010165.0,3.0,40.802678,-73.96595,"234 W 109TH ST NEW YORK, NY 10025",NEW YORK,10025.0,"PK,0K,01,02,03,04,05,06,07,08",PK,08,No,0.7390000000000001,"$48,783.74 ",17%,3%,14%,68%,82%,13%,91%,29%,87%,Meeting Target,82%,Meeting Target,87%,Meeting Target,73%,Approaching Target,86%,Meeting Target,85%,Approaching Target,Meeting Target,2.37,2.41
P.S. 050 VITO MARCANTONIO,04M050,7,0,0%,96%,310400010050.0,4.0,40.785868,-73.940587,"433 E 100TH ST NEW YORK, NY 10029",NEW YORK,10029.0,"0K,01,02,03,04,05,06,07,08",0K,08,Yes,0.89,"$30,295.44 ",10%,1%,45%,53%,98%,0%,87%,49%,87%,Approaching Target,74%,Not Meeting Target,89%,,67%,Approaching Target,79%,Approaching Target,84%,Approaching Target,Approaching Target,2.1,2.07
P.S./M.S. 004 CROTONA PARK WEST,09X004,7,0,0%,97%,320900010004.0,9.0,40.841242,-73.898492,"1701 FULTON AVE BRONX, NY 10457",BRONX,10457.0,"0K,01,02,03,04,05,06,07,08",0K,08,No,0.903,"$28,830.61 ",12%,1%,53%,45%,98%,1%,88%,44%,85%,Meeting Target,77%,Meeting Target,89%,Approaching Target,68%,Approaching Target,80%,Approaching Target,86%,Approaching Target,Approaching Target,2.28,2.45
I.S. 219 NEW VENTURE SCHOOL,09X219,7,0,0%,98%,320900010219.0,9.0,40.833708,-73.903937,"3630 3RD AVE BRONX, NY 10456",BRONX,10456.0,"06,07,08",06,08,Yes,0.929,,31%,1%,37%,61%,98%,1%,90%,35%,82%,Approaching Target,66%,Not Meeting Target,81%,Approaching Target,63%,Not Meeting Target,70%,Approaching Target,79%,Approaching Target,Approaching Target,1.98,1.92
EAGLE ACADEMY FOR YOUNG MEN,09X231,7,0,0%,98%,320900011231.0,9.0,40.845324,-73.89739200000001,"4143 3RD AVE BRONX, NY 10457",BRONX,10457.0,"09,10,11,12",09,12,No,0.705,,4%,0%,58%,39%,97%,0%,94%,18%,82%,Approaching Target,86%,Meeting Target,77%,Meeting Target,83%,Meeting Target,85%,Exceeding Target,89%,Meeting Target,Approaching Target,2.21,2.13
P.S. 211,12X211,7,0,0%,99%,321200010211.0,12.0,40.84385,-73.890063,"1919 PROSPECT AVE BRONX, NY 10457",BRONX,10457.0,"PK,0K,01,02,03,04,05,06,07,08",PK,08,Yes,0.8690000000000001,"$23,881.24 ",24%,0%,15%,84%,98%,1%,92%,30%,87%,Approaching Target,79%,Approaching Target,86%,Approaching Target,65%,Not Meeting Target,82%,Approaching Target,81%,Approaching Target,Meeting Target,2.22,2.36
ACCION ACADEMY,12X341,7,0,0%,97%,321200010341.0,12.0,40.842605,-73.890915,"1825 PROSPECT AVE BRONX, NY 10457",BRONX,10457.0,"06,07,08",06,08,No,0.903,,18%,2%,25%,69%,95%,3%,88%,40%,85%,Exceeding Target,91%,Exceeding Target,83%,Approaching Target,87%,Meeting Target,80%,Meeting Target,92%,Meeting Target,Meeting Target,2.2,2.07
J.H.S. 050 JOHN D. WELLS,14K050,7,0,0%,96%,331400010050.0,14.0,40.711863,-73.960049,"183 S 3RD ST BROOKLYN, NY 11211",BROOKLYN,11211.0,"06,07,08",06,08,Yes,0.8220000000000001,,21%,1%,14%,82%,96%,3%,89%,40%,82%,Approaching Target,80%,Approaching Target,81%,Approaching Target,66%,Not Meeting Target,78%,Meeting Target,85%,Approaching Target,Meeting Target,2.13,2.11
RONALD EDMONDS LEARNING CENTER II,17K484,7,0,0%,97%,331700010484.0,23.0,40.673118,-73.920067,"430 HOWARD AVE BROOKLYN, NY 11233",BROOKLYN,11233.0,"06,07,08",06,08,No,0.8440000000000001,,4%,1%,84%,13%,96%,1%,90%,36%,97%,Meeting Target,100%,Exceeding Target,100%,Meeting Target,98%,Exceeding Target,95%,Exceeding Target,100%,Exceeding Target,Meeting Target,2.32,2.17
ACADEMY FOR YOUNG WRITERS,19K404,7,0,0%,97%,331900011404.0,19.0,40.6573,-73.874138,"1065 ELTON ST BROOKLYN, NY 11208",BROOKLYN,11208.0,"06,07,08,09,10,11,12",06,12,Yes,0.705,,1%,1%,72%,24%,97%,1%,90%,39%,71%,Meeting Target,85%,Exceeding Target,78%,Meeting Target,87%,Meeting Target,75%,Approaching Target,92%,Meeting Target,Approaching Target,2.16,1.98
P.S. 121 NELSON A. ROCKEFELLER,21K121,7,0,0%,45%,332100010121.0,21.0,40.622876,-73.978774,"5301 20TH AVE BROOKLYN, NY 11204",BROOKLYN,11204.0,"PK,0K,01,02,03,04,05,06,07,08",PK,08,No,0.682,"$47,519.85 ",18%,18%,3%,42%,45%,35%,95%,14%,93%,Meeting Target,94%,Meeting Target,87%,Meeting Target,91%,Exceeding Target,83%,Meeting Target,94%,Exceeding Target,Exceeding Target,2.68,2.95
P.S. 043,27Q043,7,0,0%,91%,342700010043.0,27.0,40.594019,-73.76137800000001,"160 BEACH 29TH ST FAR ROCKAWAY, NY 11691",FAR ROCKAWAY,11691.0,"PK,0K,01,02,03,04,05,06,07,08",PK,08,No,0.79,"$40,256.36 ",9%,4%,60%,31%,91%,4%,91%,34%,85%,Approaching Target,70%,Approaching Target,83%,Approaching Target,61%,Not Meeting Target,76%,Not Meeting Target,75%,Not Meeting Target,Approaching Target,2.24,2.31
P.S. 105 THE BAY SCHOOL,27Q105,7,0,0%,95%,342700010105.0,27.0,40.595904,-73.781257,"420 BEACH 51ST ST FAR ROCKAWAY, NY 11691",FAR ROCKAWAY,11691.0,"PK,0K,01,02,03,04,05,06,07,08",PK,08,No,0.897,"$26,636.28 ",4%,3%,66%,28%,94%,2%,91%,37%,85%,Approaching Target,86%,Meeting Target,82%,Approaching Target,76%,Approaching Target,80%,Approaching Target,88%,Meeting Target,Meeting Target,2.21,2.22
"I.S. 349 MATH, SCIENCE & TECH.",32K349,7,0,0%,99%,333200010349.0,32.0,40.700818,-73.927587,"35 STARR ST BROOKLYN, NY 11211",BROOKLYN,11211.0,"06,07,08",06,08,Yes,0.863,,30%,0%,4%,95%,99%,0%,94%,18%,85%,Approaching Target,91%,Approaching Target,83%,Approaching Target,79%,Meeting Target,78%,Meeting Target,92%,Meeting Target,Meeting Target,2.25,2.26
SUMMIT ACADEMY CHARTER SCHOOL,84K730,7,0,0%,94%,331500860953.0,15.0,40.677847,-74.004818,"27 HUNTINGTON ST BROOKLYN, NY 11231",BROOKLYN,11231.0,"06,07,08,09,10,11,12",06,12,No,0.753,,3%,0%,49%,43%,92%,3%,89%,36%,87%,Meeting Target,85%,Meeting Target,83%,Meeting Target,86%,Meeting Target,88%,Exceeding Target,90%,Meeting Target,Approaching Target,2.27,2.45
HARBOR SCIENCE AND ARTS CHARTER SCHOOL,84M704,7,0,0%,96%,310400860812.0,4.0,40.795537,-73.944526,"132-142 E 111TH ST NEW YORK, NY 10029",NEW YORK,10029.0,"01,02,03,04,05,06,07,08",01,08,No,0.741,"$30,585.60 ",3%,3%,56%,38%,93%,1%,87%,30%,93%,Meeting Target,96%,Exceeding Target,88%,Meeting Target,90%,Exceeding Target,88%,Meeting Target,96%,Exceeding Target,Exceeding Target,2.91,2.94
DR. RICHARD IZQUIERDO HEALTH AND SCIENCE CHARTER SCHOOL,84X482,7,0,0%,97%,321200860965.0,12.0,40.827387,-73.900529,"800 HOME ST-RM 205 BRONX, NY 10456",BRONX,10456.0,"06,07,08,09,10,11,12",06,12,No,0.8320000000000001,,10%,1%,32%,65%,97%,1%,93%,23%,85%,Meeting Target,89%,Meeting Target,83%,Meeting Target,83%,Meeting Target,81%,Meeting Target,90%,Meeting Target,Meeting Target,2.23,2.48
YOUNG WOMEN'S LEADERSHIP SCHOOL,04M610,8,0,0%,85%,310400011610.0,4.0,40.792935,-73.947168,"105 E 106TH ST NEW YORK, NY 10029",NEW YORK,10029.0,"06,07,08,09,10,11,12",06,12,No,0.722,,2%,9%,25%,60%,85%,4%,95%,16%,90%,Exceeding Target,97%,Exceeding Target,87%,Meeting Target,92%,Exceeding Target,72%,Approaching Target,94%,Exceeding Target,Meeting Target,2.69,2.54
P.S. 046 ARTHUR TAPPAN,05M046,8,0,0%,97%,310500010046.0,5.0,40.831496,-73.936154,"2987 FREDERICK DOUGLAS BLVD NEW YORK, NY 10039",NEW YORK,10039.0,"PK,0K,01,02,03,04,05,06",PK,06,No,0.903,"$23,035.78 ",9%,1%,50%,48%,97%,1%,90%,39%,91%,Meeting Target,89%,Meeting Target,85%,Meeting Target,81%,Meeting Target,80%,Approaching Target,90%,Meeting Target,Approaching Target,2.19,2.19
P.S./I.S. 210 - TWENTY-FIRST CENTURY ACADEMY FOR COMMUNITY LEADERSHIP,06M210,8,0,0%,99%,310600010210.0,6.0,40.830009000000004,-73.944648,"501-503 W 152ND ST NEW YORK, NY 10031",NEW YORK,10031.0,"PK,0K,01,02,03,04,05,06,07,08",PK,08,No,0.8,"$36,575.20 ",33%,1%,3%,96%,99%,0%,95%,12%,94%,Meeting Target,92%,Meeting Target,91%,Exceeding Target,83%,Meeting Target,86%,Meeting Target,91%,Meeting Target,Exceeding Target,2.46,2.62
P.S. 5 PORT MORRIS,07X005,8,0,0%,96%,320700010005.0,7.0,40.813613000000004,-73.908429,"564 JACKSON AVE BRONX, NY 10455",BRONX,10455.0,"PK,0K,01,02,03,04,05,06,07,08",PK,08,No,0.905,"$22,754.70 ",24%,0%,27%,71%,98%,1%,91%,36%,90%,Meeting Target,87%,Meeting Target,81%,Approaching Target,79%,Meeting Target,82%,Approaching Target,85%,Approaching Target,Approaching Target,2.15,2.11
SOUTH BRONX PREPARATORY: A COLLEGE BOARD SCHOOL,07X221,8,0,0%,96%,320700011221.0,7.0,40.813507,-73.920477,"360 E 145TH ST BRONX, NY 10454",BRONX,10454.0,"06,07,08,09,10,11,12",06,12,No,0.872,,8%,1%,24%,72%,96%,2%,93%,21%,89%,Exceeding Target,92%,Exceeding Target,89%,Exceeding Target,87%,Meeting Target,74%,Approaching Target,91%,Meeting Target,Meeting Target,2.25,2.39
I.S. 206 ANN MERSEREAU,10X206,8,0,0%,97%,321000010206.0,10.0,40.859604,-73.906275,"2280 AQUEDUCT AVE BRONX, NY 10468",BRONX,10468.0,"05,06,07,08",05,08,No,0.909,,24%,1%,19%,78%,97%,1%,91%,33%,89%,Meeting Target,91%,Meeting Target,83%,Approaching Target,83%,Meeting Target,84%,Meeting Target,94%,Exceeding Target,Approaching Target,2.06,2.12
SCHOOL OF PERFORMING ARTS,12X217,8,0,0%,95%,321200010217.0,12.0,40.822084000000004,-73.894038,"977 FOX ST BRONX, NY 10459",BRONX,10459.0,"06,07,08",06,08,Yes,0.87,,21%,3%,28%,67%,96%,1%,90%,38%,79%,Approaching Target,77%,Approaching Target,71%,Approaching Target,73%,Approaching Target,82%,Meeting Target,82%,Approaching Target,Approaching Target,2.11,1.98
M.S. K266 - PARK PLACE COMMUNITY MIDDLE SCHOOL,13K266,8,0,0%,92%,331300010266.0,13.0,40.678907,-73.9465,"31 NEW YORK AVE BROOKLYN, NY 11216",BROOKLYN,11216.0,"06,07,08",06,08,No,0.6890000000000001,,2%,1%,78%,19%,98%,1%,91%,33%,84%,Approaching Target,88%,Meeting Target,75%,Approaching Target,85%,Meeting Target,85%,Exceeding Target,92%,Meeting Target,Approaching Target,2.23,2.1
P.S. 308 CLARA CARDWELL,16K308,8,0,0%,95%,331600010308.0,16.0,40.688447,-73.935295,"616 QUINCY ST BROOKLYN, NY 11221",BROOKLYN,11221.0,"PK,0K,01,02,03,04,05,06,07,08",PK,08,No,0.828,"$35,536.41 ",5%,2%,78%,19%,96%,0%,89%,44%,87%,Approaching Target,86%,Meeting Target,86%,Approaching Target,77%,Approaching Target,83%,Approaching Target,86%,Approaching Target,Approaching Target,2.27,2.01
P.S./ I.S. 155 NICHOLAS HERKIMER,23K155,8,0,0%,95%,332300010155.0,23.0,40.677642,-73.908695,"1355 HERKIMER ST BROOKLYN, NY 11233",BROOKLYN,11233.0,"PK,0K,01,02,03,04,05,06,07,08",PK,08,No,0.877,"$36,518.60 ",13%,2%,50%,46%,96%,1%,88%,43%,91%,Meeting Target,96%,Meeting Target,86%,Approaching Target,88%,Meeting Target,86%,Meeting Target,95%,Exceeding Target,Approaching Target,2.14,2.15
J.H.S. 162 THE WILLOUGHBY,32K162,8,0,0%,93%,333200010162.0,32.0,40.706871,-73.92002,"1390 WILLOUGHBY AVE BROOKLYN, NY 11237",BROOKLYN,11237.0,"06,07,08",06,08,No,0.845,,21%,2%,3%,92%,95%,2%,91%,31%,89%,Meeting Target,83%,Meeting Target,84%,Meeting Target,78%,Approaching Target,77%,Approaching Target,86%,Approaching Target,Meeting Target,2.23,2.23
J.H.S. 291 ROLAND HAYES,32K291,8,0,0%,97%,333200010291.0,32.0,40.695648,-73.915406,"231 PALMETTO ST BROOKLYN, NY 11221",BROOKLYN,11221.0,"06,07,08",06,08,Yes,0.8390000000000001,,30%,1%,15%,81%,96%,3%,89%,36%,96%,Meeting Target,97%,Exceeding Target,88%,Meeting Target,89%,Meeting Target,78%,Meeting Target,93%,Meeting Target,Meeting Target,2.17,2.1
P.S./I.S. 384 FRANCES E. CARTER,32K384,8,0,0%,98%,333200010384.0,32.0,40.68977,-73.904832,"242 COOPER ST BROOKLYN, NY 11207",BROOKLYN,11207.0,"PK,0K,01,02,03,04,05,06,07,08",PK,08,No,0.863,"$36,830.45 ",25%,2%,12%,85%,97%,1%,93%,23%,88%,Meeting Target,91%,Meeting Target,93%,Meeting Target,78%,Approaching Target,79%,Approaching Target,92%,Meeting Target,Meeting Target,2.39,2.37
HARLEM VILLAGE ACADEMY CHARTER SCHOOL,84M709,8,0,0%,97%,310500860848.0,5.0,40.806558,-73.944012,"35 W 124TH ST NEW YORK, NY 10027",NEW YORK,10027.0,"05,06,07,08,09,10,11,12",05,12,No,0.708,,4%,0%,80%,18%,98%,1%,96%,11%,80%,Approaching Target,89%,Meeting Target,80%,Meeting Target,86%,Meeting Target,83%,Approaching Target,92%,Meeting Target,Meeting Target,2.31,2.66
PROFESSIONAL PERFORMING ARTS HIGH SCHOOL,02M408,9,0,0%,43%,310200011408.0,2.0,40.761328999999996,-73.98866899999999,"328 W 48TH ST NEW YORK, NY 10036",NEW YORK,10036.0,"06,07,08,09,10,11,12",06,12,No,0.33,,0%,5%,23%,20%,43%,44%,96%,9%,90%,Meeting Target,86%,Meeting Target,84%,Meeting Target,85%,Meeting Target,75%,Approaching Target,91%,Meeting Target,Exceeding Target,3.44,3.38
P.S. 108 ASSEMBLYMAN ANGELO DEL TORO EDUCATIONAL COMPLEX,04M108,9,0,0%,94%,310400010108.0,4.0,40.795035,-73.947872,"1615 MADISON AVE NEW YORK, NY 10029",NEW YORK,10029.0,"PK,0K,01,02,03,04,05,06,07,08",PK,08,No,0.843,"$27,911.28 ",13%,5%,28%,64%,92%,1%,91%,34%,87%,Approaching Target,80%,Approaching Target,86%,Approaching Target,67%,Approaching Target,83%,Approaching Target,86%,Meeting Target,Meeting Target,2.29,2.31
COMMUNITY MATH & SCIENCE PREP,06M328,9,0,0%,95%,310600010328.0,6.0,40.836912,-73.937412,"401 W 164TH ST NEW YORK, NY 10032",NEW YORK,10032.0,"06,07,08",06,08,No,0.8340000000000001,,36%,1%,12%,85%,97%,1%,87%,43%,91%,Meeting Target,87%,Meeting Target,88%,Approaching Target,86%,Meeting Target,84%,Meeting Target,90%,Meeting Target,Approaching Target,1.98,1.97
P.S./M.S. 031 THE WILLIAM LLOYD GARRISON,07X031,9,0,0%,94%,320700010031.0,7.0,40.822539,-73.921487,"250 E 156TH ST BRONX, NY 10451",BRONX,10451.0,"PK,0K,01,02,03,04,05,06,07,08",PK,08,No,0.878,"$28,918.55 ",13%,2%,27%,69%,96%,1%,90%,39%,86%,Approaching Target,86%,Meeting Target,85%,Approaching Target,79%,Meeting Target,81%,Approaching Target,89%,Meeting Target,Approaching Target,2.09,2.04
ACADEMY OF PUBLIC RELATIONS,07X298,9,0,0%,97%,320700010298.0,7.0,40.818906,-73.905333,"778 FOREST AVE BRONX, NY 10456",BRONX,10456.0,"06,07,08",06,08,No,0.882,,23%,0%,26%,72%,98%,1%,90%,37%,82%,Meeting Target,92%,Meeting Target,75%,Approaching Target,92%,Exceeding Target,75%,Approaching Target,91%,Meeting Target,Meeting Target,2.14,1.97
ANTONIA PANTOJA PREPARATORY ACADEMY: A COLLEGE BOARD SCHOOL,08X376,9,0,0%,89%,320800011376.0,8.0,40.821448,-73.855654,"1980 LAFAYETTE AVE BRONX, NY 10473",BRONX,10473.0,"06,07,08,09,10,11,12",06,12,No,0.7559999999999999,,11%,7%,22%,68%,91%,1%,90%,32%,84%,,71%,,74%,Approaching Target,61%,,74%,Approaching Target,85%,Approaching Target,Meeting Target,2.33,2.15
I.S. 313 SCHOOL OF LEADERSHIP DEVELOPMENT,09X313,9,0,0%,98%,320900010313.0,9.0,40.840589,-73.90454,"1600 WEBSTER AVE BRONX, NY 10457",BRONX,10457.0,"06,07,08",06,08,Yes,0.8809999999999999,,32%,1%,32%,67%,99%,0%,89%,42%,73%,Not Meeting Target,80%,Approaching Target,78%,Approaching Target,60%,Not Meeting Target,75%,Approaching Target,79%,Not Meeting Target,Meeting Target,2.05,2.05
J.H.S. 057 WHITELAW REID,16K057,9,0,0%,94%,331600010057.0,16.0,40.691396000000005,-73.93314000000001,"125 STUYVESANT AVE BROOKLYN, NY 11221",BROOKLYN,11221.0,"06,07,08",06,08,No,0.884,,3%,0%,66%,32%,98%,1%,90%,36%,95%,Exceeding Target,99%,Exceeding Target,92%,Meeting Target,97%,Exceeding Target,86%,Exceeding Target,97%,Exceeding Target,Exceeding Target,2.37,2.29
EBBETS FIELD MIDDLE SCHOOL,17K352,9,0,0%,87%,331700010352.0,17.0,40.664878,-73.95952199999999,"46 MCKEEVER PL BROOKLYN, NY 11225",BROOKLYN,11225.0,"06,07,08",06,08,Yes,0.7859999999999999,,19%,3%,64%,30%,94%,4%,91%,29%,91%,Approaching Target,85%,Meeting Target,84%,Approaching Target,73%,Approaching Target,76%,Approaching Target,89%,Meeting Target,Meeting Target,2.12,2.11
P.S./I.S. 137 RACHEL JEAN MITCHELL,23K137,9,0,0%,94%,332300010137.0,23.0,40.682247,-73.916696,"121 SARATOGA AVE BROOKLYN, NY 11233",BROOKLYN,11233.0,"PK,0K,01,02,03,04,05,06,07,08",PK,08,No,0.807,"$35,419.93 ",3%,0%,74%,20%,94%,1%,88%,43%,93%,Meeting Target,90%,Meeting Target,85%,Approaching Target,80%,Meeting Target,87%,Meeting Target,92%,Meeting Target,Meeting Target,2.27,2.38
"THE GREGORY JOCKO JACKSON SCHOOL OF SPORTS, ART, AND TECHNOLOGY",23K284,9,0,0%,99%,332300010284.0,23.0,40.666934000000005,-73.90760999999999,"213 OSBORN ST BROOKLYN, NY 11212",BROOKLYN,11212.0,"PK,0K,01,02,03,04,05,06,07,08",PK,08,Yes,0.9059999999999999,"$20,931.74 ",9%,0%,69%,30%,99%,1%,89%,40%,90%,Meeting Target,87%,Meeting Target,86%,Approaching Target,80%,Meeting Target,90%,Exceeding Target,92%,Meeting Target,Approaching Target,2.08,2.09
P.S. 327 DR. ROSE B. ENGLISH,23K327,9,0,0%,95%,332300010327.0,23.0,40.66798,-73.912085,"111 BRISTOL ST BROOKLYN, NY 11212",BROOKLYN,11212.0,"PK,0K,01,02,03,04,05,06,07,08",PK,08,No,0.851,"$32,208.89 ",9%,2%,71%,25%,96%,2%,88%,47%,90%,Approaching Target,82%,Meeting Target,77%,Approaching Target,65%,Not Meeting Target,73%,Not Meeting Target,76%,Not Meeting Target,Approaching Target,2.17,1.98
MOTT HALL IV,23K522,9,0,0%,98%,332300010522.0,23.0,40.678113,-73.915211,"1137 HERKIMER ST BROOKLYN, NY 11233",BROOKLYN,11233.0,"06,07,08",06,08,No,0.7709999999999999,,2%,2%,87%,12%,98%,0%,89%,44%,98%,Meeting Target,99%,Exceeding Target,87%,Approaching Target,97%,Exceeding Target,87%,Exceeding Target,95%,Exceeding Target,Approaching Target,2.3,2.08
P.S./M.S. 200 - THE POMONOK SCHOOL & STAR ACADEMY,25Q200,9,0,0%,69%,342500010200.0,25.0,40.73106,-73.805449,"70-10 164TH ST FLUSHING, NY 11365",FLUSHING,11365.0,"PK,0K,01,02,03,04,05,06,07,08",PK,08,No,0.531,"$47,345.33 ",6%,13%,23%,46%,69%,16%,94%,18%,89%,Approaching Target,92%,Meeting Target,78%,Approaching Target,88%,Exceeding Target,83%,Meeting Target,91%,Meeting Target,Meeting Target,2.66,2.61
GOLDIE MAPLE ACADEMY,27Q333,9,0,0%,91%,342700010333.0,27.0,40.591349,-73.78618900000001,"3-65 BEACH 56TH ST ARVERNE, NY 11692",ARVERNE,11692.0,"PK,0K,01,02,03,04,05,06,07,08",PK,08,No,0.7440000000000001,"$40,849.62 ",0%,4%,70%,18%,88%,3%,96%,7%,94%,Meeting Target,87%,Meeting Target,87%,Exceeding Target,83%,Meeting Target,81%,Approaching Target,86%,Approaching Target,Meeting Target,2.57,2.62
P.S./M.S. 147 RONALD MCNAIR,29Q147,9,0,0%,96%,342900010147.0,29.0,40.698026,-73.740151,"218-01 116TH AVE CAMBRIA HEIGHTS, NY 11411",CAMBRIA HEIGHTS,11411.0,"PK,0K,01,02,03,04,05,06,07,08",PK,08,No,0.48,"$74,346.24 ",3%,1%,95%,2%,97%,1%,92%,30%,85%,Approaching Target,72%,Approaching Target,90%,Approaching Target,65%,Not Meeting Target,72%,Not Meeting Target,82%,Approaching Target,Approaching Target,2.41,2.29
COMMUNITY VOICES MIDDLE SCHOOL,29Q356,9,0,0%,96%,342900010356.0,29.0,40.664858,-73.759088,"145-00 SPRINGFIELD BLVD SPRINGFIELD GARDENS, NY 11413",SPRINGFIELD GARDENS,11413.0,"06,07,08",06,08,No,0.547,,3%,1%,91%,6%,97%,1%,92%,27%,81%,Meeting Target,85%,Meeting Target,84%,Meeting Target,87%,Meeting Target,75%,Approaching Target,90%,Meeting Target,Approaching Target,2.24,2.13
SPECIAL MUSIC SCHOOL,03M859,10,0,0%,27%,310300011859.0,3.0,40.775221,-73.982997,"129 W 67TH ST NEW YORK, NY 10023",NEW YORK,10023.0,"0K,01,02,03,04,05,06,07,08,09,10,11,12",0K,12,No,0.253,"$76,791.47 ",1%,16%,13%,14%,28%,43%,96%,7%,96%,Exceeding Target,97%,Exceeding Target,91%,Exceeding Target,95%,Exceeding Target,91%,Exceeding Target,95%,Exceeding Target,Exceeding Target,3.67,3.85
EAGLE ACADEMY FOR YOUNG MEN OF HARLEM,05M148,10,0,0%,93%,310500011148.0,5.0,40.817282,-73.947238,"6 EDGECOMBE AVE NEW YORK, NY 10030",NEW YORK,10030.0,"06,07,08,09,10,11,12",06,12,No,0.747,,3%,0%,74%,24%,98%,1%,88%,47%,92%,Meeting Target,91%,Meeting Target,83%,Meeting Target,91%,Meeting Target,82%,Meeting Target,90%,Meeting Target,Approaching Target,2.26,2.02
THURGOOD MARSHALL ACADEMY FOR LEARNING AND SOCIAL CHANGE,05M670,10,0,0%,95%,310500011670.0,5.0,40.815296999999994,-73.944304,"200-214 W 135TH ST NEW YORK, NY 10030",NEW YORK,10030.0,"07,08,09,10,11,12",07,12,No,0.732,,3%,1%,74%,23%,97%,0%,96%,5%,79%,Approaching Target,90%,Meeting Target,79%,Meeting Target,82%,Meeting Target,74%,Approaching Target,91%,Meeting Target,Approaching Target,2.47,2.27
P.S./M.S. 029 MELROSE SCHOOL,07X029,10,0,0%,96%,320700010029.0,7.0,40.821611,-73.916768,"758 COURTLANDT AVE BRONX, NY 10451",BRONX,10451.0,"PK,0K,01,02,03,04,05,06,07,08",PK,08,No,0.8909999999999999,"$23,911.23 ",13%,3%,28%,67%,96%,1%,91%,35%,90%,Exceeding Target,91%,Exceeding Target,92%,Meeting Target,81%,Meeting Target,84%,Meeting Target,93%,Meeting Target,Approaching Target,2.12,2.12
I.S. 584,07X584,10,0,0%,99%,,,,,,,,,,,,,,,,,,,,,,,,,,,,,,,,,,,,
BRONX HIGH SCHOOL FOR MEDICAL SCIENCE,09X413,10,0,0%,90%,320900011413.0,9.0,40.839653999999996,-73.911386,"240 E 172ND ST BRONX, NY 10457",BRONX,10457.0,"06,07,08,09,10,11,12",06,12,No,0.8009999999999999,,6%,8%,33%,57%,90%,1%,96%,11%,90%,Approaching Target,92%,Meeting Target,82%,Approaching Target,81%,Meeting Target,81%,Meeting Target,91%,Meeting Target,Meeting Target,2.57,2.53
EAST FORDHAM ACADEMY FOR THE ARTS,10X459,10,0,0%,94%,321000011459.0,10.0,40.859506,-73.900475,"120 E 184TH ST BRONX, NY 10468",BRONX,10468.0,"06,07,08",06,08,No,0.8809999999999999,,26%,2%,12%,84%,97%,1%,92%,27%,77%,Approaching Target,78%,Approaching Target,83%,Meeting Target,71%,Not Meeting Target,78%,Approaching Target,83%,Approaching Target,Approaching Target,2.14,1.97
ENTRADA ACADEMY,12X384,10,0,0%,94%,321200010384.0,12.0,40.822084000000004,-73.894038,"977 FOX ST BRONX, NY 10459",BRONX,10459.0,"06,07,08",06,08,Yes,0.868,,33%,2%,16%,80%,96%,1%,92%,23%,74%,Not Meeting Target,73%,Approaching Target,80%,Meeting Target,70%,Not Meeting Target,77%,Approaching Target,85%,Approaching Target,Approaching Target,2.04,1.97
EAST NEW YORK FAMILY ACADEMY,19K409,10,0,0%,94%,331900011409.0,19.0,40.661208,-73.886779,"2057 LINDEN BLVD BROOKLYN, NY 11207",BROOKLYN,11207.0,"06,07,08,09,10,11,12",06,12,No,0.716,,3%,2%,65%,30%,95%,1%,95%,8%,87%,Meeting Target,85%,Meeting Target,80%,Meeting Target,84%,Meeting Target,71%,Approaching Target,90%,Meeting Target,Meeting Target,2.61,2.74
HIGHLAND PARK COMMUNITY SCHOOL,19K760,10,0,0%,93%,331900010760.0,19.0,40.685840999999996,-73.869429,"528 RIDGEWOOD AVE BROOKLYN, NY 11208",BROOKLYN,11208.0,"06,07,08",06,08,No,0.818,,13%,2%,17%,78%,96%,0%,91%,43%,87%,,92%,,85%,,87%,,74%,,91%,,,2.34,2.14
P.S./I.S. 323,23K323,10,0,0%,98%,332300010323.0,23.0,40.666247,-73.91127,"210 CHESTER ST BROOKLYN, NY 11212",BROOKLYN,11212.0,"PK,0K,01,02,03,04,05,06,07,08",PK,08,No,0.86,"$27,808.12 ",3%,1%,78%,20%,98%,0%,90%,38%,96%,Meeting Target,95%,Meeting Target,88%,Approaching Target,86%,Meeting Target,86%,Meeting Target,93%,Exceeding Target,Approaching Target,2.32,2.25
MOTT HALL BRIDGES ACADEMY,23K671,10,0,0%,98%,332300010671.0,23.0,40.666247,-73.91127,"210 CHESTER ST BROOKLYN, NY 11212",BROOKLYN,11212.0,"06,07,08",06,08,No,0.8,,1%,0%,81%,16%,98%,1%,92%,31%,96%,Meeting Target,99%,Exceeding Target,92%,Exceeding Target,97%,Exceeding Target,86%,Exceeding Target,96%,Exceeding Target,Meeting Target,2.26,2.35
P.S./I.S. 116 WILLIAM C. HUGHLEY,29Q116,10,0,0%,89%,342900010116.0,29.0,40.700759999999995,-73.78191600000001,"107-25 WREN PL JAMAICA, NY 11433",JAMAICA,11433.0,"PK,0K,01,02,03,04,05,06,07,08",PK,08,No,0.748,"$48,919.46 ",11%,5%,60%,32%,92%,2%,91%,38%,86%,Meeting Target,83%,Meeting Target,80%,Approaching Target,77%,Meeting Target,85%,Meeting Target,87%,Meeting Target,Approaching Target,2.26,2.24
P.S./M.S. 138 SUNRISE,29Q138,10,0,0%,92%,342900010138.0,29.0,40.659983000000004,-73.734434,"251-11 WELLER AVE ROSEDALE, NY 11422",ROSEDALE,11422.0,"PK,0K,01,02,03,04,05,06,07,08",PK,08,No,0.545,"$79,063.05 ",4%,3%,84%,8%,92%,2%,94%,19%,86%,Meeting Target,86%,Meeting Target,79%,Approaching Target,82%,Meeting Target,81%,Approaching Target,87%,Approaching Target,Approaching Target,2.27,2.16
PREPARATORY ACADEMY FOR WRITERS: A COLLEGE BOARD SCHOOL,29Q283,10,0,0%,94%,342900011283.0,29.0,40.668105,-73.757899,"143-10 SPRINGFIELD BLVD SPRINGFIELD GARDENS, NY 11413",SPRINGFIELD GARDENS,11413.0,"06,07,08,09,10,11,12",06,12,No,0.46399999999999997,,1%,4%,85%,6%,91%,2%,97%,3%,94%,Exceeding Target,93%,Exceeding Target,88%,Exceeding Target,92%,Exceeding Target,81%,Meeting Target,91%,Meeting Target,Meeting Target,2.68,2.6
EVERGREEN MIDDLE SCHOOL FOR URBAN EXPLORATION,32K562,10,0,0%,97%,333200010562.0,32.0,40.688922,-73.91033,"125 COVERT ST BROOKLYN, NY 11207",BROOKLYN,11207.0,"06,07,08",06,08,No,0.848,,25%,1%,28%,69%,96%,2%,92%,25%,88%,Meeting Target,95%,Meeting Target,89%,Meeting Target,92%,Meeting Target,79%,Meeting Target,95%,Exceeding Target,Approaching Target,2.11,1.95
HARLEM VILLAGE ACADEMY LEADERSHIP CHARTER SCHOOL,84M335,10,0,0%,97%,310400860849.0,4.0,40.799315,-73.933952,"2351 1ST AVE-4TH FL NEW YORK, NY 10035",NEW YORK,10035.0,"01,05,06,07,08,K",0K,08,No,0.722,"$30,184.66 ",5%,0%,65%,33%,98%,1%,95%,14%,86%,Meeting Target,86%,Meeting Target,80%,Meeting Target,81%,Meeting Target,81%,Approaching Target,90%,Meeting Target,Meeting Target,2.36,2.72
"TECHNOLOGY, ARTS, AND SCIENCES STUDIO",01M301,11,0,0%,87%,310100010301.0,1.0,40.729892,-73.98423100000001,"185 1ST AVE NEW YORK, NY 10003",NEW YORK,10003.0,"06,07,08",06,08,No,0.7909999999999999,,6%,8%,29%,55%,84%,4%,90%,35%,84%,Approaching Target,78%,Approaching Target,81%,Approaching Target,80%,Approaching Target,74%,Approaching Target,87%,Approaching Target,Meeting Target,2.29,2.0
LAFAYETTE ACADEMY,03M256,11,0,0%,85%,310300010256.0,3.0,40.791685,-73.97077,"154 W 93RD ST NEW YORK, NY 10025",NEW YORK,10025.0,"06,07,08",06,08,No,0.778,,19%,2%,51%,38%,88%,7%,88%,38%,83%,Approaching Target,89%,Meeting Target,80%,Approaching Target,87%,Meeting Target,83%,Meeting Target,91%,Meeting Target,Meeting Target,2.27,2.1
COMMUNITY ACTION SCHOOL - MS 258,03M258,11,0,0%,89%,310300010258.0,3.0,40.791685,-73.97077,"154 W 93RD ST NEW YORK, NY 10025",NEW YORK,10025.0,"06,07,08",06,08,No,0.73,,3%,2%,45%,43%,87%,11%,94%,15%,96%,Exceeding Target,96%,Exceeding Target,87%,Exceeding Target,94%,Exceeding Target,82%,Meeting Target,93%,Exceeding Target,Meeting Target,2.41,2.5
THE LEXINGTON ACADEMY,04M072,11,0,0%,94%,310400010072.0,4.0,40.791451,-73.947448,"131 E 104TH ST NEW YORK, NY 10029",NEW YORK,10029.0,"PK,0K,01,02,03,04,05,06,07,08",PK,08,No,0.866,"$33,728.15 ",11%,1%,13%,83%,95%,3%,92%,30%,90%,Meeting Target,90%,Exceeding Target,94%,Exceeding Target,82%,Meeting Target,87%,Meeting Target,92%,Meeting Target,Meeting Target,2.32,2.4
NEW DESIGN MIDDLE SCHOOL,05M514,11,0,0%,97%,310500010514.0,5.0,40.819764,-73.95724,"625 W 133RD ST NEW YORK, NY 10031",NEW YORK,10031.0,"06,07,08",06,08,No,0.8809999999999999,,11%,1%,52%,43%,95%,3%,91%,27%,83%,Approaching Target,79%,Approaching Target,81%,Meeting Target,75%,Approaching Target,78%,Approaching Target,87%,Meeting Target,Approaching Target,2.08,1.94
J.H.S. 123 JAMES M. KIERAN,08X123,11,0,0%,96%,320800010123.0,8.0,40.824884000000004,-73.873517,"1025 MORRISON AVE BRONX, NY 10472",BRONX,10472.0,"06,07,08",06,08,Yes,0.8759999999999999,,24%,1%,21%,78%,99%,0%,91%,28%,67%,Not Meeting Target,64%,Not Meeting Target,78%,Approaching Target,53%,Not Meeting Target,71%,Approaching Target,69%,Not Meeting Target,Approaching Target,2.15,1.98
FREDERICK DOUGLASS ACADEMY V. MIDDLE SCHOOL,12X273,11,0,0%,96%,321200010273.0,12.0,40.848711,-73.888912,"2111 CROTONA AVE BRONX, NY 10457",BRONX,10457.0,"06,07,08",06,08,No,0.823,,8%,1%,30%,67%,97%,1%,90%,37%,81%,Approaching Target,92%,Meeting Target,80%,Approaching Target,89%,Meeting Target,78%,Meeting Target,92%,Meeting Target,Approaching Target,2.25,2.19
MIDDLE SCHOOL FOR ART AND PHILOSOPHY,18K588,11,0,0%,95%,331800010588.0,18.0,40.65785,-73.92003199999999,"1084 LENOX RD BROOKLYN, NY 11212",BROOKLYN,11212.0,"06,07,08",06,08,No,0.778,,6%,0%,88%,6%,94%,1%,92%,26%,84%,Meeting Target,82%,Meeting Target,82%,Meeting Target,84%,Meeting Target,79%,Meeting Target,84%,Approaching Target,Meeting Target,2.29,2.18
I.S. 171 ABRAHAM LINCOLN,19K171,11,0,0%,89%,331900010171.0,19.0,40.685840999999996,-73.869429,"528 RIDGEWOOD AVE BROOKLYN, NY 11208",BROOKLYN,11208.0,"06,07,08",06,08,No,0.7879999999999999,,22%,4%,14%,77%,91%,1%,92%,26%,93%,Meeting Target,94%,Meeting Target,85%,Meeting Target,86%,Meeting Target,76%,Approaching Target,93%,Meeting Target,Approaching Target,2.27,2.2
P.S. 146 HOWARD BEACH,27Q146,11,0,0%,41%,342700010146.0,27.0,40.659866,-73.83515600000001,"98-01 159TH AVE HOWARD BEACH, NY 11414",HOWARD BEACH,11414.0,"PK,0K,01,02,03,04,05,06,07,08",PK,08,No,0.301,"$76,665.22 ",2%,3%,2%,35%,37%,60%,94%,13%,92%,Meeting Target,89%,Meeting Target,88%,Meeting Target,76%,Approaching Target,81%,Approaching Target,90%,Meeting Target,Meeting Target,2.7,2.88
I.S. 347 SCHOOL OF HUMANITIES,32K347,11,0,0%,97%,333200010347.0,32.0,40.700818,-73.927587,"35 STARR ST BROOKLYN, NY 11221",BROOKLYN,11221.0,"06,07,08",06,08,No,0.821,,18%,2%,7%,89%,96%,1%,92%,24%,86%,Meeting Target,90%,Meeting Target,82%,Meeting Target,84%,Meeting Target,81%,Meeting Target,93%,Meeting Target,Meeting Target,2.25,2.3
SOUTH BRONX EARLY COLLEGE ACADEMY CHARTER SCHOOL,84X492,11,0,0%,99%,320700861068.0,7.0,40.808913000000004,-73.921746,"423 E 138TH ST-7TH FL BRONX, NY 10454",BRONX,10454.0,"06,07,08",06,08,No,,,14%,0%,34%,63%,97%,1%,,,,,,,,,,,,,,,,,
M.S. M247 DUAL LANGUAGE MIDDLE SCHOOL,03M247,12,0,0%,98%,310300010247.0,3.0,40.789382,-73.9681,"32 W 92ND ST NEW YORK, NY 10025",NEW YORK,10025.0,"06,07,08",06,08,No,0.802,,31%,0%,1%,99%,99%,1%,96%,7%,89%,Exceeding Target,93%,Exceeding Target,92%,Exceeding Target,88%,Meeting Target,88%,Exceeding Target,95%,Exceeding Target,Exceeding Target,2.51,2.64
AMISTAD DUAL LANGUAGE SCHOOL,06M311,12,0,0%,93%,310600010311.0,6.0,40.866521999999996,-73.92381800000001,"4862 BROADWAY NEW YORK, NY 10034",NEW YORK,10034.0,"0K,01,02,03,04,05,06,07,08",0K,08,No,0.713,"$42,610.02 ",22%,2%,1%,91%,93%,5%,96%,7%,86%,Meeting Target,89%,Meeting Target,86%,Meeting Target,80%,Meeting Target,92%,Exceeding Target,91%,Meeting Target,Approaching Target,2.45,2.48
P.S. 315 LAB SCHOOL,10X315,12,0,0%,98%,321000010315.0,10.0,40.857969,-73.903757,"2246 JEROME AVE BRONX, NY 10453",BRONX,10453.0,"0K,01,02,03,04,05,06,07,08",0K,08,No,0.868,"$26,738.54 ",16%,1%,16%,82%,98%,1%,94%,19%,95%,Exceeding Target,93%,Exceeding Target,80%,Meeting Target,90%,Exceeding Target,87%,Meeting Target,89%,Meeting Target,Exceeding Target,2.46,2.61
M.S. K394,17K394,12,0,0%,91%,331700010394.0,17.0,40.672706,-73.92893000000001,"188 ROCHESTER AVE BROOKLYN, NY 11213",BROOKLYN,11213.0,"PK,0K,01,02,03,04,05,06,07,08",PK,08,No,0.797,"$32,470.47 ",4%,6%,77%,15%,92%,1%,92%,24%,89%,Meeting Target,86%,Meeting Target,83%,Approaching Target,80%,Meeting Target,82%,Approaching Target,85%,Approaching Target,Approaching Target,2.35,2.21
LIBERTY AVENUE MIDDLE SCHOOL,19K662,12,0,0%,91%,331900010662.0,19.0,40.676982,-73.883838,"350 LINWOOD ST BROOKLYN, NY 11208",BROOKLYN,11208.0,"06,07,08",06,08,No,0.823,,20%,5%,24%,68%,92%,1%,92%,31%,91%,Exceeding Target,97%,Exceeding Target,94%,Exceeding Target,94%,Exceeding Target,78%,Meeting Target,97%,Exceeding Target,Meeting Target,2.32,2.31
SCHOOL OF THE FUTURE BROOKLYN,19K663,12,0,0%,96%,331900010663.0,19.0,40.665557,-73.89764100000001,"574 DUMONT AVE BROOKLYN, NY 11207",BROOKLYN,11207.0,"06,07,08",06,08,No,0.8909999999999999,,4%,2%,64%,33%,97%,1%,94%,16%,88%,Meeting Target,97%,Exceeding Target,83%,Meeting Target,94%,Exceeding Target,85%,Meeting Target,93%,Meeting Target,Meeting Target,2.19,2.2
P.S. 095 THE GRAVESEND,21K095,12,0,0%,43%,332100010095.0,21.0,40.595711,-73.975173,"345 VAN SICKLEN ST BROOKLYN, NY 11223",BROOKLYN,11223.0,"PK,0K,01,02,03,04,05,06,07,08",PK,08,No,0.695,"$40,295.15 ",14%,29%,9%,39%,48%,22%,94%,19%,97%,Exceeding Target,95%,Exceeding Target,97%,Exceeding Target,90%,Exceeding Target,82%,Meeting Target,94%,Exceeding Target,Meeting Target,2.76,2.95
P.S. 109,22K109,12,0,0%,95%,332200010109.0,22.0,40.636004,-73.933149,"1001 E 45TH ST BROOKLYN, NY 11210",BROOKLYN,11210.0,"0K,01,02,03,04,05,06,07,08",0K,08,No,0.738,"$55,488.67 ",6%,2%,80%,15%,95%,3%,93%,23%,85%,Approaching Target,84%,Approaching Target,82%,Meeting Target,81%,Meeting Target,83%,Approaching Target,88%,Meeting Target,Meeting Target,2.32,2.2
EAGLE ACADEMY FOR YOUNG MEN II,23K644,12,0,0%,97%,332300011644.0,23.0,40.678113,-73.915211,"1137 HERKIMER ST BROOKLYN, NY 11233",BROOKLYN,11233.0,"06,07,08,09,10,11,12",06,12,No,0.685,,1%,1%,90%,8%,97%,1%,92%,23%,87%,Meeting Target,87%,Meeting Target,85%,Exceeding Target,86%,Meeting Target,82%,Meeting Target,93%,Exceeding Target,Approaching Target,2.27,2.3
